stop_id,stop_code,stop_name,stop_lat,stop_lon,location_type,parent_station,stop_timezone,wheelchair_boarding,platform_code,zone_id
SYNTUS:16000120,16000120,"Meppel, Station",52.691544,6.197199,0,stoparea:SYNTUS:40383,,0,D,
SYNTUS:16000160,16000160,"Meppel, Hugo de Grootstraat",52.701905,6.186842,0,stoparea:SYNTUS:40378,,1,,
SYNTUS:16000170,16000170,"Meppel, Hugo de Grootstraat",52.701788,6.186781,0,stoparea:SYNTUS:40378,,0,,
SYNTUS:16000180,16000180,"Meppel, Steenwijkerstraatweg",52.703397,6.182786,0,stoparea:SYNTUS:40384,,0,,
SYNTUS:16000190,16000190,"Meppel, Steenwijkerstraatweg",52.703236,6.182679,0,stoparea:SYNTUS:40384,,0,,
SYNTUS:16000220,16000220,"Meppel, Vledderstraat",52.697789,6.193439,0,stoparea:SYNTUS:40381,,0,,
SYNTUS:16000230,16000230,"Meppel, Vledderstraat",52.697789,6.193439,0,stoparea:SYNTUS:40381,,0,,
SYNTUS:16000240,16000240,"Meppel, Station",52.691501,6.196888,0,stoparea:SYNTUS:40383,,0,B,
SYNTUS:16000250,16000250,"Meppel, Station",52.691501,6.196888,0,stoparea:SYNTUS:40383,,0,B,
SYNTUS:16000260,16000260,"Meppel, Medisch Centrum",52.690439,6.216718,0,stoparea:SYNTUS:40379,,0,,
SYNTUS:16000270,16000270,"Meppel, Medisch Centrum",52.690439,6.216748,0,stoparea:SYNTUS:40379,,0,,
SYNTUS:16000280,16000280,"Halfweg, Gemeenteweg",52.666214,6.26123,0,stoparea:SYNTUS:40219,,0,,
SYNTUS:16000290,16000290,"Halfweg, Gemeenteweg",52.666277,6.261187,0,stoparea:SYNTUS:40219,,0,,
SYNTUS:16000600,16000600,"Meppel, Burg. Knopperslaan",52.698328,6.197399,0,stoparea:SYNTUS:40376,,0,,
SYNTUS:16000610,16000610,"Meppel, Burg. Knopperslaan",52.69905,6.197012,0,stoparea:SYNTUS:40376,,0,,
SYNTUS:16000800,16000800,"Meppel, De Stouwe",52.683868,6.192045,0,stoparea:SYNTUS:40377,,1,,
SYNTUS:16000810,16000810,"Meppel, De Stouwe",52.682789,6.192143,0,stoparea:SYNTUS:40377,,1,,
SYNTUS:16000870,16000870,"Meppel, Station",52.691517,6.197273,0,stoparea:SYNTUS:40383,,0,E,
SYNTUS:16000880,16000880,"Meppel, Reestplantsoen",52.68547,6.192991,0,stoparea:SYNTUS:40382,,0,,
SYNTUS:16000890,16000890,"Meppel, Reestplantsoen",52.685363,6.192915,0,stoparea:SYNTUS:40382,,1,,
SYNTUS:16000910,16000910,"Meppel, Wooncentrum Uylenborgh",52.687403,6.195629,0,stoparea:SYNTUS:40386,,0,,
SYNTUS:16000920,16000920,"Meppel, Wooncentrum Uylenborgh",52.687814,6.195903,0,stoparea:SYNTUS:40386,,1,,
SYNTUS:16110030,16110030,"De Wijk, Gemeentehuis",52.672101,6.288892,0,stoparea:SYNTUS:40199,,0,,
SYNTUS:16110060,16110060,"IJhorst, Heerenweg",52.660801,6.290389,0,stoparea:SYNTUS:40306,,0,,
SYNTUS:16110061,16110061,"IJhorst, Heerenweg",52.660801,6.290389,0,stoparea:SYNTUS:40306,,0,,
SYNTUS:16110081,16110081,"De Schiphorst, Havixhorst",52.675701,6.259186,0,stoparea:SYNTUS:40086,,0,,
SYNTUS:16110090,16110090,"De Wijk, Wiltenweg",52.673304,6.281893,0,stoparea:SYNTUS:40201,,0,,
SYNTUS:16110240,16110240,"De Wijk, Verzorgingstehuis",52.669995,6.286897,0,stoparea:SYNTUS:40200,,0,,
SYNTUS:16110260,16110260,"IJhorst, Sparrenlaan",52.658596,6.29429,0,stoparea:SYNTUS:40307,,0,,
SYNTUS:16180100,16180100,"Staphorst, Vlakkenweg",52.638909,6.19394,0,stoparea:SYNTUS:40513,,0,,
SYNTUS:16180110,16180110,"Staphorst, Vlakkenweg",52.638626,6.193241,0,stoparea:SYNTUS:40513,,0,,
SYNTUS:16180120,16180120,"Staphorst, Geerligsland",52.6408,6.197417,0,stoparea:SYNTUS:40506,,0,,
SYNTUS:16180130,16180130,"Staphorst, Geerligsland",52.640917,6.197449,0,stoparea:SYNTUS:40506,,0,,
SYNTUS:16180140,16180140,"Staphorst, Jan Arendsland",52.642558,6.200552,0,stoparea:SYNTUS:40510,,0,,
SYNTUS:16180150,16180150,"Staphorst, Jan Arendsland",52.642506,6.20033,0,stoparea:SYNTUS:40510,,0,,
SYNTUS:16180160,16180160,"Staphorst, Snelweg",52.641743,6.202842,0,stoparea:SYNTUS:40509,,0,,
SYNTUS:16180170,16180170,"Staphorst, Snelweg",52.642174,6.202865,0,stoparea:SYNTUS:40509,,0,,
SYNTUS:16180180,16180180,"Staphorst, Achthoevenweg",52.638567,6.2085,0,stoparea:SYNTUS:40502,,0,,
SYNTUS:16180190,16180190,"Staphorst, Achthoevenweg",52.63879,6.208682,0,stoparea:SYNTUS:40502,,0,,
SYNTUS:16180200,16180200,"Staphorst, Hoogeweg",52.640371,6.211445,0,stoparea:SYNTUS:40508,,0,,
SYNTUS:16180210,16180210,"Staphorst, Hoogeweg",52.640318,6.211252,0,stoparea:SYNTUS:40508,,1,,
SYNTUS:16180220,16180220,"Staphorst, Bergerslag",52.64251,6.213996,0,stoparea:SYNTUS:40504,,1,,
SYNTUS:16180230,16180230,"Staphorst, Bergerslag",52.642466,6.213937,0,stoparea:SYNTUS:40504,,1,,
SYNTUS:16180240,16180240,"Staphorst, Gemeentehuis",52.644889,6.210598,0,stoparea:SYNTUS:40507,,0,,
SYNTUS:16180250,16180250,"Staphorst, Gemeentehuis",52.644635,6.210904,0,stoparea:SYNTUS:40507,,1,,
SYNTUS:16180260,16180260,"Staphorst, Lindenlaan",52.647719,6.206795,0,stoparea:SYNTUS:40511,,0,,
SYNTUS:16180270,16180270,"Staphorst, Lindenlaan",52.647575,6.206866,0,stoparea:SYNTUS:40511,,0,,
SYNTUS:16180280,16180280,"Staphorst, Bejaardenhuis",52.64927,6.204681,0,stoparea:SYNTUS:40503,,1,,
SYNTUS:16180290,16180290,"Staphorst, Bejaardenhuis",52.649135,6.204752,0,stoparea:SYNTUS:40503,,1,,
SYNTUS:16180300,16180300,"Staphorst, Prinses Beatrixstraat",52.65234,6.202699,0,stoparea:SYNTUS:40512,,0,,
SYNTUS:16180310,16180310,"Staphorst, Prinses Beatrixstraat",52.652223,6.202623,0,stoparea:SYNTUS:40512,,0,,
SYNTUS:16180320,16180320,"Staphorst, Boldewijnhuizen",52.665953,6.19655,0,stoparea:SYNTUS:40505,,0,,
SYNTUS:16180330,16180330,"Staphorst, Boldewijnhuizen",52.665692,6.196486,0,stoparea:SYNTUS:40505,,0,,
SYNTUS:16280100,16280100,"Rouveen, Oostermenneweg",52.595927,6.194569,0,stoparea:SYNTUS:40470,,0,,
SYNTUS:16280110,16280110,"Rouveen, Oostermenneweg",52.595739,6.194448,0,stoparea:SYNTUS:40470,,0,,
SYNTUS:16280120,16280120,"Rouveen, Zuideindigerweg",52.601596,6.196194,0,stoparea:SYNTUS:40475,,0,,
SYNTUS:16280130,16280130,"Rouveen, Zuideindigerweg",52.60157,6.196075,0,stoparea:SYNTUS:40475,,0,,
SYNTUS:16280140,16280140,"Rouveen, Stadsweg",52.607691,6.194608,0,stoparea:SYNTUS:40474,,0,,
SYNTUS:16280150,16280150,"Rouveen, Stadsweg",52.607701,6.194475,0,stoparea:SYNTUS:40474,,1,,
SYNTUS:16280160,16280160,"Rouveen, Oude Rijksweg 485",52.612152,6.190157,0,stoparea:SYNTUS:40471,,0,,
SYNTUS:16280170,16280170,"Rouveen, Oude Rijksweg 485",52.612543,6.189485,0,stoparea:SYNTUS:40471,,1,,
SYNTUS:16280180,16280180,"Rouveen, Hervormde Kerk",52.614519,6.1871,0,stoparea:SYNTUS:40469,,1,,
SYNTUS:16280190,16280190,"Rouveen, Hervormde Kerk",52.615351,6.186303,0,stoparea:SYNTUS:40469,,0,,
SYNTUS:16280200,16280200,"Rouveen, Oude Rijksweg 415",52.618208,6.18507,0,stoparea:SYNTUS:40472,,0,,
SYNTUS:16280210,16280210,"Rouveen, Oude Rijksweg 415",52.618596,6.184811,0,stoparea:SYNTUS:40472,,0,,
SYNTUS:16280220,16280220,"Rouveen, Oud Gereformeerde Kerk",52.624416,6.182716,0,stoparea:SYNTUS:40468,,1,,
SYNTUS:16280230,16280230,"Rouveen, Oud Gereformeerde Kerk",52.624318,6.182596,0,stoparea:SYNTUS:40468,,1,,
SYNTUS:16280240,16280240,"Rouveen, Conradsweg",52.627714,6.182849,0,stoparea:SYNTUS:40466,,0,,
SYNTUS:16280250,16280250,"Rouveen, Conradsweg",52.627167,6.182647,0,stoparea:SYNTUS:40466,,0,,
SYNTUS:16280260,16280260,"Rouveen, Schoolwijksweg",52.631188,6.184744,0,stoparea:SYNTUS:40473,,0,,
SYNTUS:16280270,16280270,"Rouveen, Schoolwijksweg",52.63185,6.185169,0,stoparea:SYNTUS:40473,,0,,
SYNTUS:16280280,16280280,"Rouveen, Dekkersweg",52.635778,6.189141,0,stoparea:SYNTUS:40467,,1,,
SYNTUS:16280290,16280290,"Rouveen, Dekkersweg",52.635717,6.188903,0,stoparea:SYNTUS:40467,,1,,
SYNTUS:16380100,16380100,"Lichtmis, Markteweg",52.542205,6.166772,0,stoparea:SYNTUS:40354,,1,,
SYNTUS:16380110,16380110,"Lichtmis, Markteweg",52.542645,6.166883,0,stoparea:SYNTUS:40354,,1,,
SYNTUS:16380120,16380120,"Lichtmis, Steenwetering",52.556559,6.176212,0,stoparea:SYNTUS:40356,,1,,
SYNTUS:16380130,16380130,"Lichtmis, Steenwetering",52.555539,6.175471,0,stoparea:SYNTUS:40356,,1,,
SYNTUS:16380140,16380140,"Lichtmis, Meeleweg",52.571932,6.1864,0,stoparea:SYNTUS:40355,,1,,
SYNTUS:16380150,16380150,"Lichtmis, Meeleweg",52.571047,6.185661,0,stoparea:SYNTUS:40355,,1,,
SYNTUS:16380190,16380190,"Lichtmis, Busstation",52.584811,6.194366,0,stoparea:SYNTUS:40353,,1,,
SYNTUS:16580010,16580010,"Zwolle, Noordeinde",52.54868,6.2023,0,stoparea:SYNTUS:40651,,0,,
SYNTUS:16580020,16580020,"Zwolle, Noordeinde",52.548605,6.201561,0,stoparea:SYNTUS:40651,,0,,
SYNTUS:16580030,16580030,"Zwolle, Westeinde",52.541822,6.189216,0,stoparea:SYNTUS:40699,,0,,
SYNTUS:16580040,16580040,"Zwolle, Westeinde",52.541557,6.188503,0,stoparea:SYNTUS:40699,,0,,
SYNTUS:16580050,16580050,"Zwolle, Markteweg",52.539384,6.181521,0,stoparea:SYNTUS:40643,,0,,
SYNTUS:16580060,16580060,"Zwolle, Markteweg",52.539304,6.180134,0,stoparea:SYNTUS:40643,,1,,
SYNTUS:16580070,16580070,"Zwolle, Kleefstraat",52.537417,6.17192,0,stoparea:SYNTUS:40629,,1,,
SYNTUS:16580080,16580080,"Zwolle, Kleefstraat",52.536948,6.169391,0,stoparea:SYNTUS:40629,,1,,
SYNTUS:16680010,16680010,"Ruitenveen, Dedemsweg",52.563423,6.258823,0,stoparea:SYNTUS:40476,,1,,
SYNTUS:16680020,16680020,"Ruitenveen, Dedemsweg",52.563767,6.259714,0,stoparea:SYNTUS:40476,,1,,
SYNTUS:16680030,16680030,"Ruitenveen, Kuitermansweg",52.561464,6.251336,0,stoparea:SYNTUS:40479,,0,,
SYNTUS:16680040,16680040,"Ruitenveen, Kuitermansweg",52.561747,6.252006,0,stoparea:SYNTUS:40479,,0,,
SYNTUS:16680050,16680050,"Ruitenveen, Nieuwe Kreuleweg",52.559094,6.242294,0,stoparea:SYNTUS:40481,,0,,
SYNTUS:16680060,16680060,"Ruitenveen, Nieuwe Kreuleweg",52.558923,6.241185,0,stoparea:SYNTUS:40481,,0,,
SYNTUS:16680070,16680070,"Ruitenveen, Hoevenweg",52.556479,6.232231,0,stoparea:SYNTUS:40478,,0,,
SYNTUS:16680080,16680080,"Ruitenveen, Hoevenweg",52.556158,6.230603,0,stoparea:SYNTUS:40478,,0,,
SYNTUS:16680090,16680090,"Ruitenveen, Middenweg",52.553627,6.221206,0,stoparea:SYNTUS:40480,,0,,
SYNTUS:16680100,16680100,"Ruitenveen, Middenweg",52.553507,6.220348,0,stoparea:SYNTUS:40480,,0,,
SYNTUS:16680110,16680110,"Ruitenveen, Nieuwendijk",52.551465,6.212923,0,stoparea:SYNTUS:40477,,0,,
SYNTUS:16680120,16680120,"Ruitenveen, Nieuwendijk",52.550978,6.210569,0,stoparea:SYNTUS:40477,,0,,
SYNTUS:16780001,16780001,"Nieuwleusen, Schuilhut",52.559996,6.302215,0,stoparea:SYNTUS:40725,,0,,
SYNTUS:16780002,16780002,"Nieuwleusen, Schuilhut",52.559996,6.302215,0,stoparea:SYNTUS:40725,,0,,
SYNTUS:16780003,16780003,"Nieuwleusen, Wkc De Zandspeur",52.588891,6.283321,0,stoparea:SYNTUS:40724,,0,,
SYNTUS:16780004,16780004,"Nieuwleusen, Wkc De Zandspeur",52.588891,6.283321,0,stoparea:SYNTUS:40724,,0,,
SYNTUS:16780010,16780010,"Nieuwleusen, De Vlijt",52.592323,6.317394,0,stoparea:SYNTUS:40401,,1,,
SYNTUS:16780020,16780020,"Nieuwleusen, De Vlijt",52.592234,6.314987,0,stoparea:SYNTUS:40401,,1,,
SYNTUS:16780030,16780030,"Nieuwleusen, Oosterhulst",52.591265,6.300843,0,stoparea:SYNTUS:40397,,1,,
SYNTUS:16780040,16780040,"Nieuwleusen, Oosterhulst",52.591347,6.298351,0,stoparea:SYNTUS:40397,,1,,
SYNTUS:16780050,16780050,"Nieuwleusen, Den Hulst",52.591868,6.283087,0,stoparea:SYNTUS:40403,,1,,
SYNTUS:16780060,16780060,"Nieuwleusen, Den Hulst",52.59207,6.28253,0,stoparea:SYNTUS:40403,,1,,
SYNTUS:16780070,16780070,"Nieuwleusen, Bejaardencentrum",52.587598,6.284328,0,stoparea:SYNTUS:40389,,1,,
SYNTUS:16780080,16780080,"Nieuwleusen, Baron van Dedemstraat",52.591769,6.28186,0,stoparea:SYNTUS:40388,,1,,
SYNTUS:16780090,16780090,"Nieuwleusen, Gereformeerde Kerk",52.584069,6.286307,0,stoparea:SYNTUS:40394,,1,,
SYNTUS:16780100,16780100,"Nieuwleusen, Bejaardencentrum",52.587653,6.284255,0,stoparea:SYNTUS:40389,,1,,
SYNTUS:16780110,16780110,"Nieuwleusen, Zwembad",52.58072,6.288245,0,stoparea:SYNTUS:40404,,1,,
SYNTUS:16780120,16780120,"Nieuwleusen, Gereformeerde Kerk",52.584702,6.285892,0,stoparea:SYNTUS:40394,,1,,
SYNTUS:16780130,16780130,"Nieuwleusen, Centrum",52.572668,6.291651,0,stoparea:SYNTUS:40392,,1,,
SYNTUS:16780140,16780140,"Nieuwleusen, Zwembad",52.581073,6.287913,0,stoparea:SYNTUS:40404,,1,,
SYNTUS:16780150,16780150,"Nieuwleusen, Westeinde",52.571292,6.287109,0,stoparea:SYNTUS:40402,,1,,
SYNTUS:16780160,16780160,"Nieuwleusen, Centrum",52.572801,6.291875,0,stoparea:SYNTUS:40392,,1,,
SYNTUS:16780170,16780170,"Nieuwleusen, Bouwhuisweg",52.568793,6.278753,0,stoparea:SYNTUS:40391,,1,,
SYNTUS:16780180,16780180,"Nieuwleusen, Westeinde",52.571023,6.285849,0,stoparea:SYNTUS:40402,,0,,
SYNTUS:16780190,16780190,"Nieuwleusen, Molen",52.566036,6.268889,0,stoparea:SYNTUS:40395,,0,,
SYNTUS:16780200,16780200,"Nieuwleusen, Bouwhuisweg",52.568594,6.277776,0,stoparea:SYNTUS:40391,,1,,
SYNTUS:16780220,16780220,"Nieuwleusen, Molen",52.565759,6.267409,0,stoparea:SYNTUS:40395,,0,,
SYNTUS:16780300,16780300,"Nieuwleusen, Grote Markt",52.574285,6.291743,0,stoparea:SYNTUS:40744,,0,,
SYNTUS:16780310,16780310,"Nieuwleusen, Grote Markt",52.574293,6.291905,0,stoparea:SYNTUS:40744,,0,,
SYNTUS:16780560,16780560,"Nieuwleusen, Rollecater Brug",52.590775,6.24865,0,stoparea:SYNTUS:40399,,1,,
SYNTUS:16780570,16780570,"Nieuwleusen, Rollecater Brug",52.590971,6.251325,0,stoparea:SYNTUS:40399,,1,,
SYNTUS:17000040,17000040,"Hoogeveen, Station",52.733101,6.473691,0,stoparea:SYNTUS:40298,,0,D,
SYNTUS:17000210,17000210,"Hoogeveen, Mr. Cramerweg/Buizerdlaan",52.720543,6.50587,0,stoparea:SYNTUS:40296,,1,,
SYNTUS:17000220,17000220,"Hoogeveen, Mr. Cramerweg/Buizerdlaan",52.720667,6.50608,0,stoparea:SYNTUS:40296,,1,,
SYNTUS:17000710,17000710,"Hoogeveen, Mr. Cramerweg P en R",52.718987,6.516502,0,stoparea:SYNTUS:40292,,0,,
SYNTUS:17000730,17000730,"Hoogeveen, Mr. Cramerweg P en R",52.720108,6.514858,0,stoparea:SYNTUS:40292,,1,,
SYNTUS:17001650,17001650,"Hoogeveen, Willemskade",52.729517,6.477348,0,stoparea:SYNTUS:40300,,1,,
SYNTUS:17001660,17001660,"Hoogeveen, Willemskade",52.729499,6.477318,0,stoparea:SYNTUS:40300,,1,,
SYNTUS:17003020,17003020,"Hoogeveen, Brinkstr./Centrum",52.731289,6.477215,0,stoparea:SYNTUS:40291,,0,,
SYNTUS:17003030,17003030,"Hoogeveen, Brinkstr./Centrum",52.731135,6.477285,0,stoparea:SYNTUS:40291,,0,,
SYNTUS:17003040,17003040,"Hoogeveen, Schoolstraat",52.726519,6.480871,0,stoparea:SYNTUS:40297,,1,,
SYNTUS:17003050,17003050,"Hoogeveen, Schoolstraat",52.726796,6.480982,0,stoparea:SYNTUS:40297,,1,,
SYNTUS:17003060,17003060,"Hoogeveen, Grote Kerkstraat",52.725974,6.484381,0,stoparea:SYNTUS:40293,,1,,
SYNTUS:17003070,17003070,"Hoogeveen, Grote Kerkstraat",52.725995,6.484085,0,stoparea:SYNTUS:40293,,1,,
SYNTUS:17003080,17003080,"Hoogeveen, Kanaalweg/L. Homanstraat",52.725103,6.490103,0,stoparea:SYNTUS:40294,,0,,
SYNTUS:17003090,17003090,"Hoogeveen, Kanaalweg/L. Homanstraat",52.724571,6.49037,0,stoparea:SYNTUS:40294,,0,,
SYNTUS:17003100,17003100,"Hoogeveen, Kanaalweg",52.721825,6.489857,0,stoparea:SYNTUS:40295,,1,,
SYNTUS:17003110,17003110,"Hoogeveen, Kanaalweg",52.721912,6.490215,0,stoparea:SYNTUS:40295,,1,,
SYNTUS:17003120,17003120,"Hoogeveen, Wolfsbosstraat",52.720728,6.493782,0,stoparea:SYNTUS:40301,,1,,
SYNTUS:17003130,17003130,"Hoogeveen, Wolfsbosstraat",52.720916,6.491019,0,stoparea:SYNTUS:40301,,1,,
SYNTUS:17003140,17003140,"Hoogeveen, Valkenlaan",52.720627,6.499833,0,stoparea:SYNTUS:40299,,1,,
SYNTUS:17003150,17003150,"Hoogeveen, Valkenlaan",52.720738,6.499525,0,stoparea:SYNTUS:40299,,1,,
SYNTUS:17190010,17190010,"Hollandscheveld, Buitenvaart",52.706858,6.518868,0,stoparea:SYNTUS:40281,,0,,
SYNTUS:17190020,17190020,"Hollandscheveld, Buitenvaart",52.706895,6.518721,0,stoparea:SYNTUS:40281,,0,,
SYNTUS:17190030,17190030,"Hollandscheveld, Opgaande 71",52.706564,6.528035,0,stoparea:SYNTUS:40280,,1,,
SYNTUS:17190040,17190040,"Hollandscheveld, Opgaande 71",52.706639,6.527726,0,stoparea:SYNTUS:40280,,1,,
SYNTUS:17190050,17190050,"Hollandscheveld, 't-Hoekje",52.706429,6.532766,0,stoparea:SYNTUS:40283,,1,,
SYNTUS:17190060,17190060,"Hollandscheveld, 't-Hoekje",52.706435,6.533062,0,stoparea:SYNTUS:40283,,1,,
SYNTUS:17190110,17190110,"Zuideropgaande, Jan Wintersdijkje",52.695821,6.533007,0,stoparea:SYNTUS:40552,,0,,
SYNTUS:17190120,17190120,"Zuideropgaande, Jan Wintersdijkje",52.695848,6.533008,0,stoparea:SYNTUS:40552,,0,,
SYNTUS:17190150,17190150,"Zuideropgaande, Carstensdijk",52.684291,6.531878,0,stoparea:SYNTUS:40551,,1,,
SYNTUS:17190160,17190160,"Zuideropgaande, Carstensdijk",52.684174,6.531905,0,stoparea:SYNTUS:40551,,1,,
SYNTUS:17190170,17190170,"Hollandscheveld, Riegshoogtendijk",52.704128,6.533698,0,stoparea:SYNTUS:40282,,1,,
SYNTUS:17190180,17190180,"Hollandscheveld, Riegshoogtendijk",52.704092,6.533712,0,stoparea:SYNTUS:40282,,1,,
SYNTUS:17190190,17190190,"Zuideropgaande, Schooldijkje",52.680789,6.531595,0,stoparea:SYNTUS:40553,,0,,
SYNTUS:17190200,17190200,"Zuideropgaande, Schooldijkje",52.681229,6.531592,0,stoparea:SYNTUS:40553,,0,,
SYNTUS:17290010,17290010,"Kerkenveld, Riegshoogtendijk",52.676705,6.531015,0,stoparea:SYNTUS:40313,,0,,
SYNTUS:17290020,17290020,"Kerkenveld, Riegshoogtendijk",52.677486,6.531154,0,stoparea:SYNTUS:40313,,0,,
SYNTUS:17290030,17290030,"Kerkenveld, Gedempte Wijde Wijk",52.670113,6.530459,0,stoparea:SYNTUS:40309,,1,,
SYNTUS:17290040,17290040,"Kerkenveld, Gedempte Wijde Wijk",52.670571,6.530516,0,stoparea:SYNTUS:40309,,1,,
SYNTUS:17290050,17290050,"Kerkenveld, Ritmeesterweg",52.663448,6.530094,0,stoparea:SYNTUS:40314,,0,,
SYNTUS:17290060,17290060,"Kerkenveld, Ritmeesterweg",52.664059,6.53011,0,stoparea:SYNTUS:40314,,0,,
SYNTUS:17290070,17290070,"Kerkenveld, Riegshoogtendijk 3",52.659065,6.529788,0,stoparea:SYNTUS:40312,,0,,
SYNTUS:17290080,17290080,"Kerkenveld, Riegshoogtendijk 3",52.65928,6.529808,0,stoparea:SYNTUS:40312,,0,,
SYNTUS:17290090,17290090,"Kerkenveld, Hoogeveenseweg 33",52.65443,6.52946,0,stoparea:SYNTUS:40311,,0,,
SYNTUS:17290100,17290100,"Kerkenveld, Hoogeveenseweg 33",52.654493,6.529521,0,stoparea:SYNTUS:40311,,0,,
SYNTUS:17290110,17290110,"Kerkenveld, Braambergerweg",52.646069,6.531578,0,stoparea:SYNTUS:40308,,0,,
SYNTUS:17290120,17290120,"Kerkenveld, Braambergerweg",52.64606,6.531637,0,stoparea:SYNTUS:40308,,0,,
SYNTUS:17290130,17290130,"Kerkenveld, Hoogeveenseweg 11",52.641882,6.535192,0,stoparea:SYNTUS:40310,,0,,
SYNTUS:17290140,17290140,"Kerkenveld, Hoogeveenseweg 11",52.641965,6.534973,0,stoparea:SYNTUS:40310,,0,,
SYNTUS:17480010,17480010,"Balkbrug, Centrum",52.6008,6.392294,0,stoparea:SYNTUS:40007,,1,,
SYNTUS:17480020,17480020,"Balkbrug, Centrum",52.600725,6.390418,0,stoparea:SYNTUS:40007,,1,,
SYNTUS:17480030,17480030,"Balkbrug, Zwolseweg",52.5999,6.384908,0,stoparea:SYNTUS:40011,,1,,
SYNTUS:17480040,17480040,"Balkbrug, Zwolseweg",52.59987,6.383151,0,stoparea:SYNTUS:40011,,1,,
SYNTUS:17480050,17480050,"Balkbrug, d 'Olde Heerd",52.598933,6.376974,0,stoparea:SYNTUS:40008,,1,,
SYNTUS:17480060,17480060,"Balkbrug, d 'Olde Heerd",52.599066,6.376121,0,stoparea:SYNTUS:40008,,1,,
SYNTUS:17480070,17480070,"Balkbrug, Zelhorstweg",52.596463,6.354927,0,stoparea:SYNTUS:40010,,1,,
SYNTUS:17480080,17480080,"Balkbrug, Zelhorstweg",52.596239,6.352605,0,stoparea:SYNTUS:40010,,1,,
SYNTUS:17480090,17480090,"Balkbrug, Nieuweweg (Sluis 4)",52.594334,6.337051,0,stoparea:SYNTUS:40009,,1,,
SYNTUS:17480100,17480100,"Balkbrug, Nieuweweg (Sluis 4)",52.594119,6.3347,0,stoparea:SYNTUS:40009,,1,,
SYNTUS:18500010,18500010,"Almelo, Noordikslaan",52.369215,6.661182,0,stoparea:SYNTUS:30088,,0,,
SYNTUS:18500030,18500030,"Almelo, Noordikslaan",52.369214,6.661328,0,stoparea:SYNTUS:30088,,0,,
SYNTUS:18500120,18500120,"Hoge Hexel, Sliepersdijk",52.39721,6.563494,0,stoparea:SYNTUS:30674,,0,,
SYNTUS:18500130,18500130,"Hoge Hexel, Sliepersdijk",52.397381,6.563469,0,stoparea:SYNTUS:30674,,0,,
SYNTUS:18500140,18500140,"Vriezenveen, Hammerweg",52.403188,6.600759,0,stoparea:SYNTUS:30933,,0,,
SYNTUS:19000300,19000300,"Coevorden, Station",52.663319,6.736221,0,stoparea:SYNTUS:40050,,0,B,
SYNTUS:19000320,19000320,"Coevorden, Trageldijk",52.660334,6.729137,0,stoparea:SYNTUS:40051,,0,,
SYNTUS:19000330,19000330,"Coevorden, Trageldijk",52.660158,6.728881,0,stoparea:SYNTUS:40051,,0,,
SYNTUS:19180200,19180200,"De Krim, Scheidijk",52.655681,6.676954,0,stoparea:SYNTUS:40326,,0,,
SYNTUS:19180210,19180210,"De Krim, Scheidijk",52.655615,6.677188,0,stoparea:SYNTUS:40326,,0,,
SYNTUS:19180220,19180220,"De Krim, Dommerskanaal",52.654062,6.655328,0,stoparea:SYNTUS:40319,,0,,
SYNTUS:19180230,19180230,"De Krim, Dommerskanaal",52.654099,6.656881,0,stoparea:SYNTUS:40319,,0,,
SYNTUS:19180260,19180260,"De Krim, Nieuwlandseweg",52.652579,6.635851,0,stoparea:SYNTUS:40324,,0,,
SYNTUS:19180270,19180270,"De Krim, Nieuwlandseweg",52.652418,6.634841,0,stoparea:SYNTUS:40324,,0,,
SYNTUS:19180280,19180280,"De Krim, N.H. Kerk",52.651693,6.624254,0,stoparea:SYNTUS:40322,,0,,
SYNTUS:19180290,19180290,"De Krim, N.H. Kerk",52.651557,6.623481,0,stoparea:SYNTUS:40322,,0,,
SYNTUS:19180300,19180300,"De Krim, Horstra's Wijk",52.650807,6.612628,0,stoparea:SYNTUS:40321,,1,,
SYNTUS:19180330,19180330,"De Krim, Horstra's Wijk",52.650797,6.613588,0,stoparea:SYNTUS:40321,,1,,
SYNTUS:19180332,19180332,"De Krim, Horstra's Wijk/Marsstraat",52.647298,6.61649,0,stoparea:SYNTUS:40081,,0,,
SYNTUS:19180335,19180335,"De Krim, Horstra's Wijk/Marsstraat",52.647298,6.61649,0,stoparea:SYNTUS:40081,,0,,
SYNTUS:19180350,19180350,"De Krim, Marsstraat",52.648796,6.619384,0,stoparea:SYNTUS:40082,,0,,
SYNTUS:19180450,19180450,"Ane, Slagenweg/Lutteresweg",52.637397,6.627397,0,stoparea:SYNTUS:40005,,0,,
SYNTUS:19180460,19180460,"Ane, Slagenweg/Lutteresweg",52.637397,6.627397,0,stoparea:SYNTUS:40005,,0,,
SYNTUS:19180500,19180500,"De Krim, Hoofdweg",52.651105,6.617705,0,stoparea:SYNTUS:40080,,0,,
SYNTUS:19280010,19280010,"De Krim, Molenweg",52.648589,6.603625,0,stoparea:SYNTUS:40323,,0,,
SYNTUS:19280020,19280020,"De Krim, Molenweg",52.647349,6.601005,0,stoparea:SYNTUS:40323,,0,,
SYNTUS:19280030,19280030,"De Krim, Coevorderweg 171",52.642049,6.591018,0,stoparea:SYNTUS:40318,,0,,
SYNTUS:19280040,19280040,"De Krim, Coevorderweg 171",52.642129,6.59105,0,stoparea:SYNTUS:40318,,0,,
SYNTUS:19280050,19280050,"De Krim, Drukkerij Seinen",52.639536,6.586192,0,stoparea:SYNTUS:40320,,0,,
SYNTUS:19280060,19280060,"De Krim, Drukkerij Seinen",52.638463,6.583902,0,stoparea:SYNTUS:40320,,0,,
SYNTUS:19280070,19280070,"De Krim, Coevorderweg 105",52.634863,6.577142,0,stoparea:SYNTUS:40317,,0,,
SYNTUS:19280080,19280080,"De Krim, Coevorderweg 105",52.634812,6.576889,0,stoparea:SYNTUS:40317,,0,,
SYNTUS:19380010,19380010,"Slagharen, Schuineslootweg",52.637804,6.540493,0,stoparea:SYNTUS:40499,,0,,
SYNTUS:19380020,19380020,"Slagharen, Schuineslootweg",52.638842,6.539176,0,stoparea:SYNTUS:40499,,0,,
SYNTUS:19380030,19380030,"Slagharen, Herenstraat 108",52.635127,6.544116,0,stoparea:SYNTUS:40498,,0,,
SYNTUS:19380040,19380040,"Slagharen, Herenstraat 108",52.635108,6.544204,0,stoparea:SYNTUS:40498,,0,,
SYNTUS:19380050,19380050,"Slagharen, Witmanweg",52.630845,6.550001,0,stoparea:SYNTUS:40501,,0,,
SYNTUS:19380060,19380060,"Slagharen, Witmanweg",52.631072,6.549741,0,stoparea:SYNTUS:40501,,0,,
SYNTUS:19380070,19380070,"Slagharen, Vergouwlaan",52.62895,6.552595,0,stoparea:SYNTUS:40500,,1,,
SYNTUS:19380080,19380080,"Slagharen, Vergouwlaan",52.628941,6.552639,0,stoparea:SYNTUS:40500,,1,,
SYNTUS:19380151,19380151,"Lutten, Centrum",52.612988,6.571648,0,stoparea:SYNTUS:40364,,1,,
SYNTUS:19380162,19380162,"Lutten, Centrum",52.613088,6.571547,0,stoparea:SYNTUS:40364,,1,,
SYNTUS:19380191,19380191,"Lutten, Viaduct",52.609449,6.559579,0,stoparea:SYNTUS:40370,,1,,
SYNTUS:19380202,19380202,"Lutten, Viaduct",52.609372,6.559193,0,stoparea:SYNTUS:40370,,1,,
SYNTUS:19380280,19380280,"Slagharen, Coevorderweg 89",52.629983,6.567246,0,stoparea:SYNTUS:40497,,0,,
SYNTUS:19380290,19380290,"Slagharen, Coevorderweg 89",52.630527,6.568531,0,stoparea:SYNTUS:40497,,0,,
SYNTUS:19380301,19380301,"Slagharen, Centrum",52.62629,6.556217,0,stoparea:SYNTUS:40495,,1,,
SYNTUS:19380312,19380312,"Slagharen, Centrum",52.626089,6.556507,0,stoparea:SYNTUS:40495,,1,,
SYNTUS:19380313,19380313,"Slagharen, Centrum",52.625611,6.558562,0,stoparea:SYNTUS:40495,,0,,
SYNTUS:19380314,19380314,"Slagharen, Centrum",52.625305,6.558554,0,stoparea:SYNTUS:40495,,0,,
SYNTUS:19380320,19380320,"Slagharen, Attractiepark",52.620648,6.563244,0,stoparea:SYNTUS:40494,,1,,
SYNTUS:19380330,19380330,"Slagharen, Attractiepark",52.620605,6.563095,0,stoparea:SYNTUS:40494,,1,,
SYNTUS:19380340,19380340,"Lutten, Dedemsvaartseweg 84",52.609077,6.548968,0,stoparea:SYNTUS:40367,,0,,
SYNTUS:19380350,19380350,"Lutten, Dedemsvaartseweg 84",52.609013,6.549085,0,stoparea:SYNTUS:40367,,0,,
SYNTUS:19380360,19380360,"Lutten, Coevorderweg",52.60876,6.540958,0,stoparea:SYNTUS:40366,,0,,
SYNTUS:19380370,19380370,"Lutten, Coevorderweg",52.608736,6.541621,0,stoparea:SYNTUS:40366,,0,,
SYNTUS:19380380,19380380,"Lutten, Tottenhamweg/Proatkoele",52.608137,6.527329,0,stoparea:SYNTUS:40369,,0,,
SYNTUS:19380390,19380390,"Lutten, Tottenhamweg/Proatkoele",52.60801,6.52551,0,stoparea:SYNTUS:40369,,0,,
SYNTUS:19380400,19380400,"Lutten, Ongelukkige Wijk",52.607817,6.520322,0,stoparea:SYNTUS:40368,,1,,
SYNTUS:19380410,19380410,"Lutten, Ongelukkige Wijk",52.607694,6.519109,0,stoparea:SYNTUS:40368,,1,,
SYNTUS:19480010,19480010,"Dedemsvaart, Rheezerend 162",52.609488,6.510975,0,stoparea:SYNTUS:40076,,0,,
SYNTUS:19480020,19480020,"Dedemsvaart, Rheezerend 162",52.609604,6.511982,0,stoparea:SYNTUS:40076,,0,,
SYNTUS:19480030,19480030,"Dedemsvaart, Rheezerend",52.608654,6.49932,0,stoparea:SYNTUS:40075,,0,,
SYNTUS:19480040,19480040,"Dedemsvaart, Rheezerend",52.608739,6.499854,0,stoparea:SYNTUS:40075,,0,,
SYNTUS:19480050,19480050,"Dedemsvaart, Rheezerend 60",52.60829,6.493996,0,stoparea:SYNTUS:40077,,1,,
SYNTUS:19480060,19480060,"Dedemsvaart, Rheezerend 60",52.608247,6.492843,0,stoparea:SYNTUS:40077,,1,,
SYNTUS:19480070,19480070,"Dedemsvaart, Industrieweg",52.607704,6.487455,0,stoparea:SYNTUS:40071,,1,,
SYNTUS:19480080,19480080,"Dedemsvaart, Industrieweg",52.607778,6.487162,0,stoparea:SYNTUS:40071,,1,,
SYNTUS:19480090,19480090,"Dedemsvaart, Celsiusstraat",52.607192,6.480622,0,stoparea:SYNTUS:40063,,0,,
SYNTUS:19480100,19480100,"Dedemsvaart, Celsiusstraat",52.607426,6.481484,0,stoparea:SYNTUS:40063,,0,,
SYNTUS:19480110,19480110,"Dedemsvaart, Van Haeringenstraat",52.606619,6.472488,0,stoparea:SYNTUS:40065,,0,,
SYNTUS:19480120,19480120,"Dedemsvaart, Van Haeringenstraat",52.606757,6.472152,0,stoparea:SYNTUS:40065,,0,,
SYNTUS:19480130,19480130,"Dedemsvaart, De Magnolia",52.606008,6.469505,0,stoparea:SYNTUS:40073,,1,,
SYNTUS:19480140,19480140,"Dedemsvaart, De Magnolia",52.605441,6.46958,0,stoparea:SYNTUS:40073,,1,,
SYNTUS:19480150,19480150,"Dedemsvaart, Hazelaar",52.602693,6.470354,0,stoparea:SYNTUS:40067,,1,,
SYNTUS:19480160,19480160,"Dedemsvaart, Hazelaar",52.603189,6.470174,0,stoparea:SYNTUS:40067,,1,,
SYNTUS:19480170,19480170,"Dedemsvaart, Krikkenstraat",52.600467,6.463125,0,stoparea:SYNTUS:40072,,1,,
SYNTUS:19480180,19480180,"Dedemsvaart, Krikkenstraat",52.600625,6.464517,0,stoparea:SYNTUS:40072,,1,,
SYNTUS:19480190,19480190,"Dedemsvaart, Haitjema",52.599628,6.459444,0,stoparea:SYNTUS:40066,,1,,
SYNTUS:19480200,19480200,"Dedemsvaart, Haitjema",52.599504,6.459205,0,stoparea:SYNTUS:40066,,1,,
SYNTUS:19480230,19480230,"Dedemsvaart, Adelaarweg",52.595301,6.457907,0,stoparea:SYNTUS:40061,,1,,
SYNTUS:19480240,19480240,"Dedemsvaart, Adelaarweg",52.595259,6.457552,0,stoparea:SYNTUS:40061,,1,,
SYNTUS:19480250,19480250,"Dedemsvaart, Sportlaan",52.596485,6.45212,0,stoparea:SYNTUS:40079,,1,,
SYNTUS:19480260,19480260,"Dedemsvaart, Sportlaan",52.596502,6.452254,0,stoparea:SYNTUS:40079,,1,,
SYNTUS:19480280,19480280,"Dedemsvaart, Busstation",52.59912,6.448966,0,stoparea:SYNTUS:40062,,1,,
SYNTUS:19480290,19480290,"Dedemsvaart, Busstation",52.599055,6.449186,0,stoparea:SYNTUS:40062,,1,,
SYNTUS:19480300,19480300,"Dedemsvaart, Hoofdvaart 115",52.597906,6.440952,0,stoparea:SYNTUS:40069,,0,,
SYNTUS:19480310,19480310,"Dedemsvaart, Hoofdvaart 115",52.59798,6.441795,0,stoparea:SYNTUS:40069,,0,,
SYNTUS:19480320,19480320,"Dedemsvaart, Hoofdvaart 207",52.597021,6.433255,0,stoparea:SYNTUS:40070,,0,,
SYNTUS:19480330,19480330,"Dedemsvaart, Hoofdvaart 207",52.597052,6.433846,0,stoparea:SYNTUS:40070,,0,,
SYNTUS:19480340,19480340,"Dedemsvaart, Het Rak",52.598724,6.420454,0,stoparea:SYNTUS:40068,,0,,
SYNTUS:19480350,19480350,"Dedemsvaart, Het Rak",52.598753,6.420307,0,stoparea:SYNTUS:40068,,0,,
SYNTUS:19480360,19480360,"Dedemsvaart, De Pol",52.602414,6.416865,0,stoparea:SYNTUS:40064,,1,,
SYNTUS:19480370,19480370,"Dedemsvaart, De Pol",52.601345,6.417814,0,stoparea:SYNTUS:40064,,1,,
SYNTUS:19481990,19481990,"Dedemsvaart, S.G. van der Capellen",52.604902,6.454686,0,stoparea:SYNTUS:40078,,1,,
SYNTUS:19580000,19580000,"Gramsbergen, Station",52.610094,6.67609,0,stoparea:SYNTUS:40217,,0,,
SYNTUS:19580010,19580010,"Gramsbergen, Station",52.610094,6.67609,0,stoparea:SYNTUS:40217,,0,,
SYNTUS:19580040,19580040,"Ane, Aner Molen",52.6206,6.648589,0,stoparea:SYNTUS:40001,,0,,
SYNTUS:19580050,19580050,"Ane, Aner Molen",52.6206,6.648589,0,stoparea:SYNTUS:40001,,0,,
SYNTUS:19580060,19580060,"Ane, De Viersprong",52.613993,6.651191,0,stoparea:SYNTUS:40002,,0,,
SYNTUS:19580070,19580070,"Ane, De Viersprong",52.613993,6.651191,0,stoparea:SYNTUS:40002,,0,,
SYNTUS:19580080,19580080,"Ane, Slagenweg/Haarweg",52.633895,6.632188,0,stoparea:SYNTUS:40003,,0,,
SYNTUS:19580090,19580090,"Ane, Slagenweg/Haarweg",52.633895,6.632188,0,stoparea:SYNTUS:40003,,0,,
SYNTUS:19580100,19580100,"Ane, Slagenweg/Schansweg",52.626401,6.642286,0,stoparea:SYNTUS:40004,,0,,
SYNTUS:19580110,19580110,"Ane, Slagenweg/Schansweg",52.626401,6.642286,0,stoparea:SYNTUS:40004,,0,,
SYNTUS:24550090,24550090,"Steenwijk, Onnaseveld",52.776021,6.162541,0,stoparea:SYNTUS:40518,,0,,
SYNTUS:24550100,24550100,"Steenwijk, Onnaseveld",52.776222,6.161997,0,stoparea:SYNTUS:40518,,0,,
SYNTUS:24550122,24550122,"Steenwijk, Bedelaarspad",52.779691,6.149505,0,stoparea:SYNTUS:40514,,0,,
SYNTUS:24550130,24550130,"Steenwijk, Bedelaarspad",52.780014,6.148117,0,stoparea:SYNTUS:40514,,0,,
SYNTUS:24550220,24550220,"Steenwijk, Westercluft",52.794259,6.125281,0,stoparea:SYNTUS:40521,,0,,
SYNTUS:24550230,24550230,"Steenwijk, Westercluft",52.794142,6.125249,0,stoparea:SYNTUS:40521,,0,,
SYNTUS:24550250,24550250,"Steenwijk, Station",52.790547,6.118028,0,stoparea:SYNTUS:40515,,0,,
SYNTUS:24550360,24550360,"Steenwijk, Kallenkoter",52.7854,6.132069,0,stoparea:SYNTUS:40517,,1,,
SYNTUS:24550370,24550370,"Steenwijk, Kallenkoter",52.785254,6.132362,0,stoparea:SYNTUS:40517,,0,,
SYNTUS:24550380,24550380,"Steenwijk, Gagelsweg",52.787813,6.13288,0,stoparea:SYNTUS:40516,,0,,
SYNTUS:24550390,24550390,"Steenwijk, Gagelsweg",52.787402,6.132414,0,stoparea:SYNTUS:40516,,0,,
SYNTUS:24550400,24550400,"Steenwijk, Oostercluft",52.790802,6.136282,0,stoparea:SYNTUS:40519,,1,,
SYNTUS:24550410,24550410,"Steenwijk, Oostercluft",52.790605,6.136086,0,stoparea:SYNTUS:40519,,1,,
SYNTUS:24550420,24550420,"Steenwijk, 't Schar",52.793733,6.130387,0,stoparea:SYNTUS:40520,,0,,
SYNTUS:24550430,24550430,"Steenwijk, 't Schar",52.79366,6.130519,0,stoparea:SYNTUS:40520,,0,,
SYNTUS:24650010,24650010,"Veendijk, Veendijk",52.740595,6.193426,0,stoparea:SYNTUS:40527,,0,,
SYNTUS:24650020,24650020,"Veendijk, Veendijk",52.740472,6.193113,0,stoparea:SYNTUS:40527,,0,,
SYNTUS:24650030,24650030,"Veendijk, Bovenboer",52.751847,6.186731,0,stoparea:SYNTUS:40526,,0,,
SYNTUS:24650040,24650040,"Veendijk, Bovenboer",52.752451,6.18652,0,stoparea:SYNTUS:40526,,0,,
SYNTUS:24650050,24650050,"Havelterberg, Havelterberg",52.771718,6.174616,0,stoparea:SYNTUS:40241,,0,,
SYNTUS:24650060,24650060,"Havelterberg, Havelterberg",52.772955,6.173735,0,stoparea:SYNTUS:40241,,0,,
SYNTUS:24650070,24650070,"Havelterberg, Rotonde",52.774699,6.168209,0,stoparea:SYNTUS:40242,,0,,
SYNTUS:24650080,24650080,"Havelterberg, Rotonde",52.774809,6.167811,0,stoparea:SYNTUS:40242,,0,,
SYNTUS:24750100,24750100,"Meppel, Nijeveenseweg",52.706005,6.179785,0,stoparea:SYNTUS:40380,,0,,
SYNTUS:24750110,24750110,"Meppel, Nijeveenseweg",52.705853,6.179753,0,stoparea:SYNTUS:40380,,0,,
SYNTUS:24750120,24750120,"Nijeveen, De Schalle",52.729616,6.164652,0,stoparea:SYNTUS:40405,,1,,
SYNTUS:24750130,24750130,"Nijeveen, De Schalle",52.729391,6.164604,0,stoparea:SYNTUS:40405,,1,,
SYNTUS:24750140,24750140,"Nijeveen, Molenweg",52.73247,6.165147,0,stoparea:SYNTUS:40408,,1,,
SYNTUS:24750150,24750150,"Nijeveen, Molenweg",52.732444,6.165073,0,stoparea:SYNTUS:40408,,0,,
SYNTUS:24750160,24750160,"Nijeveen, Gemeentehuis",52.733676,6.170424,0,stoparea:SYNTUS:40406,,0,,
SYNTUS:24750170,24750170,"Nijeveen, Gemeentehuis",52.733756,6.170544,0,stoparea:SYNTUS:40406,,0,,
SYNTUS:24750180,24750180,"Nijeveen, Kerkweg",52.735599,6.17724,0,stoparea:SYNTUS:40407,,0,,
SYNTUS:24750190,24750190,"Nijeveen, Kerkweg",52.735505,6.176483,0,stoparea:SYNTUS:40407,,0,,
SYNTUS:24750200,24750200,"Nijeveen, Zonneberg",52.737906,6.182997,0,stoparea:SYNTUS:40409,,0,,
SYNTUS:24750210,24750210,"Nijeveen, Zonneberg",52.737616,6.182118,0,stoparea:SYNTUS:40409,,0,,
SYNTUS:25770020,25770020,"Zwolle, Mannagras",52.537679,6.050927,0,stoparea:SYNTUS:40642,,1,,
SYNTUS:25770030,25770030,"Zwolle, Klokkengieterlaan",52.534006,6.061601,0,stoparea:SYNTUS:40631,,1,,
SYNTUS:25770050,25770050,"Zwolle, Karveelschipperstraat",52.537833,6.065123,0,stoparea:SYNTUS:40624,,1,,
SYNTUS:25770060,25770060,"Zwolle, Veldbeemdgras",52.535478,6.055566,0,stoparea:SYNTUS:40687,,1,,
SYNTUS:25770070,25770070,"Zwolle, Goudsmidstraat",52.533375,6.066676,0,stoparea:SYNTUS:40597,,1,,
SYNTUS:25770110,25770110,"Zwolle, Fioringras",52.538919,6.055795,0,stoparea:SYNTUS:40591,,1,,
SYNTUS:25770230,25770230,"Zwolle, Bandijklaan",52.524511,6.063858,0,stoparea:SYNTUS:40558,,1,,
SYNTUS:25770240,25770240,"Zwolle, Bandijklaan",52.52476,6.064348,0,stoparea:SYNTUS:40558,,1,,
SYNTUS:39001001,39001001,"Denekamp, Noord Deurningen",52.396336,7.027566,0,stoparea:SYNTUS:39001,,0,,
SYNTUS:39001003,39001003,"Denekamp, Centrum/Eurowerft",52.375453,7.006113,0,stoparea:SYNTUS:39017,,0,,
SYNTUS:39002001,39002001,"Nordhorn, Grenze",52.403321,7.035276,0,stoparea:SYNTUS:39002,,0,,
SYNTUS:39002002,39002002,"Nordhorn, Grenze",52.403275,7.035348,0,stoparea:SYNTUS:39002,,0,,
SYNTUS:39004001,39004001,"Nordhorn, GIP/Euregiostrasse",52.413296,7.045791,0,stoparea:SYNTUS:39004,,0,,
SYNTUS:39004002,39004002,"Nordhorn, GIP/Euregiostrasse",52.412949,7.045543,0,stoparea:SYNTUS:39004,,0,,
SYNTUS:39005001,39005001,"Nordhorn, Sudfriedhof",52.417751,7.050545,0,stoparea:SYNTUS:39005,,0,,
SYNTUS:39010001,39010001,"Nordhorn, Hannoverstrasse",52.422278,7.055258,0,stoparea:SYNTUS:39010,,0,,
SYNTUS:39010002,39010002,"Nordhorn, Hannoverstrasse",52.422746,7.055893,0,stoparea:SYNTUS:39010,,0,,
SYNTUS:39011001,39011001,"Nordhorn, Berufsschulzentrum",52.427975,7.061149,0,stoparea:SYNTUS:39011,,0,,
SYNTUS:39011002,39011002,"Nordhorn, Berufsschulzentrum",52.427832,7.061144,0,stoparea:SYNTUS:39011,,0,,
SYNTUS:39012001,39012001,"Nordhorn, Bahnhof",52.429811,7.065469,0,stoparea:SYNTUS:39012,,0,,
SYNTUS:39013001,39013001,"Nordhorn, Rathaus",52.432877,7.066055,0,stoparea:SYNTUS:39013,,0,,
SYNTUS:39013002,39013002,"Nordhorn, Rathaus",52.433148,7.067242,0,stoparea:SYNTUS:39013,,0,,
SYNTUS:39014001,39014001,"Nordhorn, Europaplatz",52.434027,7.069879,0,stoparea:SYNTUS:39014,,0,,
SYNTUS:39014002,39014002,"Nordhorn, Europaplatz",52.433947,7.069817,0,stoparea:SYNTUS:39014,,0,,
SYNTUS:39015001,39015001,"Nordhorn, Firnhaberstrasse",52.434909,7.071104,0,stoparea:SYNTUS:39015,,0,,
SYNTUS:39015002,39015002,"Nordhorn, Firnhaberstrasse",52.43497,7.071827,0,stoparea:SYNTUS:39015,,0,,
SYNTUS:39016001,39016001,"Nordhorn, Zentral Omnibus Bahnhof",52.437096,7.07279,0,stoparea:SYNTUS:39016,,0,,
SYNTUS:39017001,39017001,"Boekelo, P2 Slagersmatenweg",52.183917,6.831748,0,stoparea:SYNTUS:39024,,0,,
SYNTUS:39017002,39017002,"Boekelo, P1 Jacobsrietweg",52.18265,6.838259,0,stoparea:SYNTUS:39025,,0,,
SYNTUS:40000008,40000008,"Arnhem, Centraal Station",51.98415,5.900611,0,stoparea:SYNTUS:50267,,1,R,
SYNTUS:40000010,40000010,"Arnhem, Centraal Station",51.983519,5.901142,0,stoparea:SYNTUS:50267,,1,,
SYNTUS:40000015,40000015,"Arnhem, Centraal Station",51.984105,5.900596,0,stoparea:SYNTUS:50267,,1,P,
SYNTUS:40000040,40000040,"Arnhem, Willemsplein",51.983533,5.906004,0,stoparea:SYNTUS:50315,,1,F,
SYNTUS:40000090,40000090,"Arnhem, Vondellaan",51.992114,5.945837,0,stoparea:SYNTUS:50314,,1,,
SYNTUS:40000130,40000130,"Arnhem, Raapopseweg",51.988659,5.933375,0,stoparea:SYNTUS:50302,,1,,
SYNTUS:40000141,40000141,"Arnhem, Raapopseweg",51.989148,5.932493,0,stoparea:SYNTUS:50302,,1,,
SYNTUS:40000150,40000150,"Arnhem, Huijghenslaan",51.989981,5.938866,0,stoparea:SYNTUS:50285,,1,,
SYNTUS:40000160,40000160,"Arnhem, Huijghenslaan",51.989865,5.93869,0,stoparea:SYNTUS:50285,,1,,
SYNTUS:40000230,40000230,"Arnhem, Willemsplein",51.983576,5.906412,0,stoparea:SYNTUS:50315,,1,D,
SYNTUS:40001270,40001270,"Arnhem, Het Dorp",51.992162,5.881018,0,stoparea:SYNTUS:50283,,1,,
SYNTUS:40001290,40001290,"Arnhem, Het Dorp",51.992342,5.880845,0,stoparea:SYNTUS:50283,,1,,
SYNTUS:40004701,40004701,"Arnhem, Lange Wal",51.98156,5.948238,0,stoparea:SYNTUS:50293,,1,,
SYNTUS:40009009,40009009,"Arnhem, Eusebiusplein",51.976603,5.910058,0,stoparea:SYNTUS:50277,,1,,
SYNTUS:40009010,40009010,"Arnhem, Eusebiusplein",51.97649,5.911293,0,stoparea:SYNTUS:50277,,1,,
SYNTUS:40009013,40009013,"Arnhem, Badhuisstraat",51.974598,5.918228,0,stoparea:SYNTUS:50313,,1,,
SYNTUS:40009014,40009014,"Arnhem, Badhuisstraat",51.974581,5.918097,0,stoparea:SYNTUS:50313,,1,,
SYNTUS:40009015,40009015,"Arnhem, Van Oldenbarneveldtstraat",51.971659,5.922312,0,stoparea:SYNTUS:50311,,1,,
SYNTUS:40009016,40009016,"Arnhem, Van Oldenbarneveldtstraat",51.971184,5.923863,0,stoparea:SYNTUS:50311,,1,,
SYNTUS:40009017,40009017,"Arnhem, Haven",51.971683,5.930695,0,stoparea:SYNTUS:50282,,1,,
SYNTUS:40009018,40009018,"Arnhem, Haven",51.971573,5.931086,0,stoparea:SYNTUS:50282,,1,,
SYNTUS:40009019,40009019,"Arnhem, Dr. C. Lelyweg",51.971602,5.934667,0,stoparea:SYNTUS:50275,,1,,
SYNTUS:40009020,40009020,"Arnhem, Dr. C. Lelyweg",51.971332,5.936613,0,stoparea:SYNTUS:50275,,1,,
SYNTUS:40009021,40009021,"Arnhem, Kleefse Waard",51.971218,5.939741,0,stoparea:SYNTUS:50288,,1,,
SYNTUS:40009022,40009022,"Arnhem, Kleefse Waard",51.971388,5.940034,0,stoparea:SYNTUS:50288,,1,,
SYNTUS:40009023,40009023,"Arnhem, Bruningweg",51.974947,5.939961,0,stoparea:SYNTUS:50261,,0,,
SYNTUS:40009024,40009024,"Arnhem, Bruningweg",51.974803,5.940134,0,stoparea:SYNTUS:50261,,1,,
SYNTUS:40009025,40009025,"Arnhem, P. Calandweg",51.977274,5.94213,0,stoparea:SYNTUS:50301,,1,,
SYNTUS:40009026,40009026,"Arnhem, P. Calandweg",51.977935,5.94304,0,stoparea:SYNTUS:50301,,1,,
SYNTUS:40009027,40009027,"Arnhem, Slaakweg",51.979627,5.944459,0,stoparea:SYNTUS:50308,,1,,
SYNTUS:40009028,40009028,"Arnhem, Slaakweg",51.980047,5.94493,0,stoparea:SYNTUS:50308,,1,,
SYNTUS:40009035,40009035,"Arnhem, Keulse Slag",51.98362,5.955411,0,stoparea:SYNTUS:50287,,1,,
SYNTUS:40009036,40009036,"Arnhem, Keulse Slag",51.983295,5.953821,0,stoparea:SYNTUS:50287,,1,,
SYNTUS:40009040,40009040,"Arnhem, Brekelenkampstraat",51.987358,5.959229,0,stoparea:SYNTUS:50262,,1,,
SYNTUS:40009043,40009043,"Arnhem, Saksen Weimar Kazerne",52.001234,5.929393,0,stoparea:SYNTUS:50305,,1,,
SYNTUS:40009044,40009044,"Arnhem, Saksen Weimar Kazerne",52.001699,5.929835,0,stoparea:SYNTUS:50305,,1,,
SYNTUS:40009049,40009049,"Arnhem, Zuilesteinlaan/HTS",51.987668,5.95274,0,stoparea:SYNTUS:50319,,1,,
SYNTUS:40009063,40009063,"Arnhem, Sonsbeek",51.989368,5.90779,0,stoparea:SYNTUS:50309,,1,,
SYNTUS:40009064,40009064,"Arnhem, Sonsbeek",51.991054,5.908625,0,stoparea:SYNTUS:50309,,1,,
SYNTUS:40009065,40009065,"Arnhem, Dalweg",51.993063,5.909594,0,stoparea:SYNTUS:50271,,1,,
SYNTUS:40009066,40009066,"Arnhem, Dalweg",51.993797,5.910273,0,stoparea:SYNTUS:50271,,1,,
SYNTUS:40009067,40009067,"Arnhem, De Braamberg",51.996592,5.912358,0,stoparea:SYNTUS:50272,,1,,
SYNTUS:40009068,40009068,"Arnhem, De Braamberg",51.996761,5.912681,0,stoparea:SYNTUS:50272,,1,,
SYNTUS:40009069,40009069,"Arnhem, Moscowa",52.001429,5.920046,0,stoparea:SYNTUS:50295,,1,,
SYNTUS:40009077,40009077,"Arnhem, Burg. Weertsstraat/Amsterdamsew.",51.988286,5.894005,0,stoparea:SYNTUS:50312,,1,,
SYNTUS:40009079,40009079,"Arnhem, Landgoed Rosorum",51.989908,5.889,0,stoparea:SYNTUS:50292,,1,,
SYNTUS:40009080,40009080,"Arnhem, Landgoed Rosorum",51.990378,5.888365,0,stoparea:SYNTUS:50292,,1,,
SYNTUS:40009082,40009082,"Arnhem, Schelmseweg",51.994459,5.875481,0,stoparea:SYNTUS:50306,,1,,
SYNTUS:40009083,40009083,"Arnhem, Cios",52.003412,5.928706,0,stoparea:SYNTUS:51188,,1,,
SYNTUS:40009085,40009085,"Arnhem, Burg. Weertsstraat/Amsterdamsew.",51.988659,5.89315,0,stoparea:SYNTUS:51192,,1,,
SYNTUS:40009105,40009105,"Arnhem, Centraal Station/Sonsbeekzijde",51.985611,5.899637,0,stoparea:SYNTUS:50270,,1,,
SYNTUS:40009106,40009106,"Arnhem, Centraal Station/Sonsbeekzijde",51.986046,5.898682,0,stoparea:SYNTUS:50270,,1,,
SYNTUS:40009107,40009107,"Arnhem, Elsweide/HAN",51.989242,5.950751,0,stoparea:SYNTUS:50276,,1,,
SYNTUS:40009109,40009109,"Arnhem, Marktplein Geitenkamp",52.00095,5.941942,0,stoparea:SYNTUS:51161,,1,,
SYNTUS:40009110,40009110,"Arnhem, Marktplein Geitenkamp",52.001496,5.940551,0,stoparea:SYNTUS:51161,,1,,
SYNTUS:40009259,40009259,"Arnhem, Broerenstraat",51.978705,5.908292,0,stoparea:SYNTUS:50263,,1,,
SYNTUS:40009260,40009260,"Arnhem, Broerenstraat",51.978509,5.9081,0,stoparea:SYNTUS:50263,,1,,
SYNTUS:40009261,40009261,"Arnhem, Rozet",51.980399,5.905298,0,stoparea:SYNTUS:50291,,1,,
SYNTUS:40009262,40009262,"Arnhem, Rozet",51.980318,5.905385,0,stoparea:SYNTUS:50291,,1,,
SYNTUS:40059041,40059041,"Arnhem, Golflinks",52.018961,5.925033,0,stoparea:SYNTUS:50279,,1,,
SYNTUS:40059042,40059042,"Arnhem, Golflinks",52.019238,5.925415,0,stoparea:SYNTUS:50279,,1,,
SYNTUS:40059070,40059070,"Arnhem, Moscowa",52.00157,5.920616,0,stoparea:SYNTUS:50295,,1,,
SYNTUS:40129039,40129039,"Arnhem, Brekelenkampstraat",51.987128,5.958528,0,stoparea:SYNTUS:50262,,1,,
SYNTUS:40129181,40129181,"Velp, Graaf Gerhardstraat",51.988474,5.962578,0,stoparea:SYNTUS:51062,,1,,
SYNTUS:40129182,40129182,"Velp, Graaf Gerhardstraat",51.988058,5.963096,0,stoparea:SYNTUS:51062,,1,,
SYNTUS:40129183,40129183,"Velp, Graaf Ottostraat",51.98728,5.967934,0,stoparea:SYNTUS:51061,,1,,
SYNTUS:40129184,40129184,"Velp, Graaf Ottostraat",51.987106,5.968485,0,stoparea:SYNTUS:51061,,1,,
SYNTUS:40129185,40129185,"Velp, Haverland",51.987086,5.974323,0,stoparea:SYNTUS:51063,,1,,
SYNTUS:40129186,40129186,"Velp, Haverland",51.986708,5.972556,0,stoparea:SYNTUS:51063,,1,,
SYNTUS:40129187,40129187,"Velp, Ziekenhuis/Waterstraat",51.987648,5.97698,0,stoparea:SYNTUS:51067,,1,,
SYNTUS:40129188,40129188,"Velp, Ziekenhuis/Waterstraat",51.987778,5.978,0,stoparea:SYNTUS:51067,,1,,
SYNTUS:40129189,40129189,"Velp, Gruttostraat",51.988195,5.980816,0,stoparea:SYNTUS:51059,,1,,
SYNTUS:40129190,40129190,"Velp, Gruttostraat",51.988871,5.984028,0,stoparea:SYNTUS:51059,,1,,
SYNTUS:40129193,40129193,"Velp, Oosterwolde",51.99415,5.985204,0,stoparea:SYNTUS:51064,,1,,
SYNTUS:40129194,40129194,"Velp, Oosterwolde",51.994546,5.985079,0,stoparea:SYNTUS:51064,,1,,
SYNTUS:40129195,40129195,"Velp, A.G. Hofkeslaan",51.996935,5.983756,0,stoparea:SYNTUS:51057,,1,,
SYNTUS:40129196,40129196,"Velp, A.G. Hofkeslaan",51.997094,5.984268,0,stoparea:SYNTUS:51057,,1,,
SYNTUS:40129197,40129197,"Velp, Beekhuizenseweg",51.999077,5.986639,0,stoparea:SYNTUS:51058,,1,,
SYNTUS:40129198,40129198,"Velp, Beekhuizenseweg",51.998988,5.98658,0,stoparea:SYNTUS:51058,,1,,
SYNTUS:40129202,40129202,"Rheden, Hotel De Roskam",52.005611,6.007611,0,stoparea:SYNTUS:50925,,1,,
SYNTUS:40153001,40153001,"Terlet, Groenendaal",52.079672,5.947222,0,stoparea:SYNTUS:50962,,0,,
SYNTUS:40153002,40153002,"Terlet, Groenendaal",52.07942,5.947263,0,stoparea:SYNTUS:50962,,0,,
SYNTUS:40153003,40153003,"Terlet, Terlet",52.059547,5.939577,0,stoparea:SYNTUS:50963,,0,,
SYNTUS:40158004,40158004,"Woeste Hoeve, Woeste Hoeve",52.105418,5.952114,0,stoparea:SYNTUS:51139,,0,,
SYNTUS:40169081,40169081,"Arnhem, Schelmseweg",51.993998,5.876102,0,stoparea:SYNTUS:50306,,1,,
SYNTUS:40169083,40169083,"Arnhem, Klein Warnsborn",51.999169,5.864509,0,stoparea:SYNTUS:50289,,0,,
SYNTUS:40169084,40169084,"Arnhem, Klein Warnsborn",51.997933,5.867874,0,stoparea:SYNTUS:50289,,0,,
SYNTUS:40169085,40169085,"Arnhem, De Vijverberg",52.000774,5.861046,0,stoparea:SYNTUS:50274,,0,,
SYNTUS:40169086,40169086,"Arnhem, De Vijverberg",52.001986,5.859238,0,stoparea:SYNTUS:50274,,0,,
SYNTUS:40169087,40169087,"Arnhem, De Leeren Doedel",52.00616,5.846873,0,stoparea:SYNTUS:50273,,0,,
SYNTUS:40169088,40169088,"Arnhem, De Leeren Doedel",52.007122,5.844509,0,stoparea:SYNTUS:50273,,0,,
SYNTUS:40169091,40169091,"Arnhem, Van der Valk/Papendal",52.013969,5.821418,0,stoparea:SYNTUS:50296,,0,,
SYNTUS:40169092,40169092,"Arnhem, Van der Valk/Papendal",52.01528,5.819318,0,stoparea:SYNTUS:50296,,1,,
SYNTUS:40169093,40169093,"Arnhem, Revalidatie Centrum BIO",52.018579,5.821536,0,stoparea:SYNTUS:50303,,1,,
SYNTUS:40169094,40169094,"Arnhem, Revalidatie Centrum BIO",52.01935,5.822184,0,stoparea:SYNTUS:50303,,1,,
SYNTUS:40169095,40169095,"Arnhem, Grijsoord",52.022639,5.824809,0,stoparea:SYNTUS:50280,,1,,
SYNTUS:40169096,40169096,"Arnhem, Grijsoord",52.023131,5.825368,0,stoparea:SYNTUS:50280,,1,,
SYNTUS:40169098,40169098,"Arnhem, 's-Kooningsjaght",52.028579,5.82988,0,stoparea:SYNTUS:50307,,1,,
SYNTUS:40258001,40258001,"Woeste Hoeve, Schalterdalweg",52.128646,5.957169,0,stoparea:SYNTUS:51138,,0,,
SYNTUS:40258003,40258003,"Woeste Hoeve, Woeste Hoeve",52.104753,5.951989,0,stoparea:SYNTUS:51139,,0,,
SYNTUS:40269001,40269001,"Oud Reemst, Oud Reemsterweg",52.043062,5.809544,0,stoparea:SYNTUS:50884,,0,,
SYNTUS:40269002,40269002,"Oud Reemst, Oud Reemsterweg",52.043116,5.809471,0,stoparea:SYNTUS:50884,,0,,
SYNTUS:40269003,40269003,"Oud Reemst, Huize Jekel",52.075709,5.785755,0,stoparea:SYNTUS:50883,,0,,
SYNTUS:40269004,40269004,"Oud Reemst, Huize Jekel",52.07626,5.785001,0,stoparea:SYNTUS:50883,,0,,
SYNTUS:40269097,40269097,"Arnhem, 's-Kooningsjaght",52.027827,5.829144,0,stoparea:SYNTUS:50307,,1,,
SYNTUS:40344001,40344001,"'s Heeren Loo, Apeldoornseweg",52.090945,5.728209,0,stoparea:SYNTUS:50941,,1,,
SYNTUS:40344002,40344002,"'s Heeren Loo, Apeldoornseweg",52.091204,5.728664,0,stoparea:SYNTUS:50941,,1,,
SYNTUS:40351001,40351001,"Beekbergen, Stoppelbergweg",52.139294,5.959554,0,stoparea:SYNTUS:50361,,0,,
SYNTUS:40351002,40351002,"Beekbergen, Stoppelbergweg",52.142023,5.960349,0,stoparea:SYNTUS:50361,,0,,
SYNTUS:40351003,40351003,"Beekbergen, Vossenfarm",52.146216,5.961235,0,stoparea:SYNTUS:50362,,0,,
SYNTUS:40351004,40351004,"Beekbergen, Vossenfarm",52.147652,5.961663,0,stoparea:SYNTUS:50362,,0,,
SYNTUS:40351006,40351006,"Beekbergen, Berg en Dalweg",52.153425,5.959282,0,stoparea:SYNTUS:50353,,0,,
SYNTUS:40358002,40358002,"Woeste Hoeve, Schalterdalweg",52.130027,5.957668,0,stoparea:SYNTUS:51138,,1,,
SYNTUS:40358005,40358005,"Woeste Hoeve, Schalterdalweg",52.129231,5.956899,0,stoparea:SYNTUS:51138,,1,,
SYNTUS:40360001,40360001,"Otterlo, 't Lage Veld",52.08908,5.775864,0,stoparea:SYNTUS:50882,,0,,
SYNTUS:40360002,40360002,"Otterlo, 't Lage Veld",52.089008,5.775951,0,stoparea:SYNTUS:50882,,0,,
SYNTUS:40360003,40360003,"Otterlo, De Zanding",52.092942,5.774103,0,stoparea:SYNTUS:50878,,1,,
SYNTUS:40360004,40360004,"Otterlo, De Zanding",52.093131,5.774163,0,stoparea:SYNTUS:50878,,0,,
SYNTUS:40360005,40360005,"Otterlo, Onderlangs",52.096902,5.772401,0,stoparea:SYNTUS:50880,,0,,
SYNTUS:40360006,40360006,"Otterlo, Onderlangs",52.097946,5.77206,0,stoparea:SYNTUS:50880,,0,,
SYNTUS:40360007,40360007,"Otterlo, Centrum",52.101641,5.771814,0,stoparea:SYNTUS:50877,,1,,
SYNTUS:40360008,40360008,"Otterlo, Centrum",52.101794,5.771903,0,stoparea:SYNTUS:50877,,1,,
SYNTUS:40360009,40360009,"Otterlo, Rotonde",52.10342,5.769304,0,stoparea:SYNTUS:50881,,1,,
SYNTUS:40360010,40360010,"Otterlo, Rotonde",52.103401,5.769625,0,stoparea:SYNTUS:50881,,1,,
SYNTUS:40360013,40360013,"Otterlo, Rotonde",52.103932,5.769484,0,stoparea:SYNTUS:50881,,1,,
SYNTUS:40360014,40360014,"Otterlo, Rotonde",52.103994,5.769616,0,stoparea:SYNTUS:50881,,1,,
SYNTUS:40360019,40360019,"Otterlo, Begraafplaats",52.101833,5.776428,0,stoparea:SYNTUS:50874,,1,,
SYNTUS:40360020,40360020,"Otterlo, Begraafplaats",52.101884,5.77707,0,stoparea:SYNTUS:50874,,0,,
SYNTUS:40361002,40361002,"Harskamp, Museum Schietkamp",52.123225,5.759646,0,stoparea:SYNTUS:50664,,1,,
SYNTUS:40362008,40362008,"De Hoge Veluwe, Ingang Otterlo",52.102921,5.786902,0,stoparea:SYNTUS:50400,,0,,
SYNTUS:40372001,40372001,"De Hoge Veluwe, Uitgang Hoenderloo",52.117937,5.871574,0,stoparea:SYNTUS:50402,,0,. ,
SYNTUS:40374001,40374001,"Hoenderloo, Centrum",52.118028,5.875576,0,stoparea:SYNTUS:50705,,0,,
SYNTUS:40374002,40374002,"Hoenderloo, Centrum",52.117928,5.875867,0,stoparea:SYNTUS:50705,,1,,
SYNTUS:40374005,40374005,"Hoenderloo, Krimweg Dorp",52.119024,5.884683,0,stoparea:SYNTUS:50708,,0,,
SYNTUS:40374006,40374006,"Hoenderloo, Krimweg Dorp",52.119111,5.88537,0,stoparea:SYNTUS:50708,,0,,
SYNTUS:40374010,40374010,"Hoenderloo, Bungalow Park",52.120571,5.901244,0,stoparea:SYNTUS:50704,,0,,
SYNTUS:40374011,40374011,"Hoenderloo, Hoenderloo Groep",52.123462,5.874511,0,stoparea:SYNTUS:50707,,1,,
SYNTUS:40374012,40374012,"Hoenderloo, Hoenderloo Groep",52.123319,5.874276,0,stoparea:SYNTUS:50707,,1,,
SYNTUS:40374013,40374013,"Hoenderloo, Miggelenbergweg",52.122725,5.89369,0,stoparea:SYNTUS:50709,,1,,
SYNTUS:40374014,40374014,"Hoenderloo, Miggelenbergweg",52.122606,5.894214,0,stoparea:SYNTUS:50709,,1,,
SYNTUS:40402017,40402017,"Bennekom, Bosweg",51.994125,5.677546,0,stoparea:SYNTUS:50364,,1,,
SYNTUS:40406001,40406001,"Wageningen, Busstation",51.969442,5.667243,0,stoparea:SYNTUS:51095,,1,,
SYNTUS:40406002,40406002,"Wageningen, Busstation",51.969505,5.667185,0,stoparea:SYNTUS:51095,,1,,
SYNTUS:40406006,40406006,"Wageningen, Arboretumlaan",51.969654,5.672309,0,stoparea:SYNTUS:51092,,0,,
SYNTUS:40406007,40406007,"Wageningen, Dolderstraat",51.978061,5.671008,0,stoparea:SYNTUS:51098,,0,,
SYNTUS:40406008,40406008,"Wageningen, Dolderstraat",51.976946,5.671351,0,stoparea:SYNTUS:51098,,0,,
SYNTUS:40406009,40406009,"Wageningen, Nobelweg",51.979448,5.677422,0,stoparea:SYNTUS:51105,,1,,
SYNTUS:40406010,40406010,"Wageningen, Nobelweg",51.979637,5.677161,0,stoparea:SYNTUS:51105,,1,,
SYNTUS:40406011,40406011,"Wageningen, Mansholtlaan",51.981563,5.676373,0,stoparea:SYNTUS:51103,,0,,
SYNTUS:40406012,40406012,"Wageningen, Mansholtlaan",51.981664,5.675354,0,stoparea:SYNTUS:51103,,0,,
SYNTUS:40406013,40406013,"Wageningen, Buissteeg",51.987965,5.678845,0,stoparea:SYNTUS:51094,,1,,
SYNTUS:40406014,40406014,"Wageningen, Buissteeg",51.987087,5.67782,0,stoparea:SYNTUS:51094,,0,,
SYNTUS:40406019,40406019,"Wageningen, Haagsteeg",51.970388,5.654617,0,stoparea:SYNTUS:51101,,1,,
SYNTUS:40406020,40406020,"Wageningen, Haagsteeg",51.970163,5.654602,0,stoparea:SYNTUS:51101,,1,,
SYNTUS:40406021,40406021,"Wageningen, Ooststeeg",51.975125,5.650687,0,stoparea:SYNTUS:51106,,1,,
SYNTUS:40406022,40406022,"Wageningen, Ooststeeg",51.97499,5.650483,0,stoparea:SYNTUS:51106,,1,,
SYNTUS:40406023,40406023,"Wageningen, Dijkgraaf",51.979953,5.658066,0,stoparea:SYNTUS:51097,,0,,
SYNTUS:40406024,40406024,"Wageningen, Dijkgraaf",51.9794,5.65601,0,stoparea:SYNTUS:51097,,1,,
SYNTUS:40406025,40406025,"Wageningen, Bornsesteeg",51.980554,5.666133,0,stoparea:SYNTUS:51093,,1,,
SYNTUS:40406026,40406026,"Wageningen, Bornsesteeg",51.980874,5.663792,0,stoparea:SYNTUS:51093,,1,,
SYNTUS:40406027,40406027,"Wageningen, Hoevestein",51.980971,5.672075,0,stoparea:SYNTUS:51102,,1,,
SYNTUS:40406028,40406028,"Wageningen, Hoevestein",51.98116,5.672003,0,stoparea:SYNTUS:51102,,1,,
SYNTUS:40406029,40406029,"Wageningen, Campus/Atlas",51.988484,5.668803,0,stoparea:SYNTUS:51099,,1,,
SYNTUS:40406030,40406030,"Wageningen, Campus/Atlas",51.987999,5.668888,0,stoparea:SYNTUS:51099,,1,,
SYNTUS:40406035,40406035,"Wageningen, Busstation",51.96955,5.666909,0,stoparea:SYNTUS:51095,,1,,
SYNTUS:40406051,40406051,"Wageningen, Geertjesweg",51.973483,5.672493,0,stoparea:SYNTUS:51100,,0,,
SYNTUS:40406052,40406052,"Wageningen, Geertjesweg",51.973744,5.672436,0,stoparea:SYNTUS:51100,,0,,
SYNTUS:40432001,40432001,"Laag Soeren, De Harmonie",52.083681,6.075938,0,stoparea:SYNTUS:50763,,1,,
SYNTUS:40432002,40432002,"Laag Soeren, De Harmonie",52.084272,6.074795,0,stoparea:SYNTUS:50763,,1,,
SYNTUS:40433002,40433002,"Eerbeek, 't Veentje",52.089411,6.065987,0,stoparea:SYNTUS:50535,,1,,
SYNTUS:40441001,40441001,"Loenen, Harderwijkerweg",52.109193,6.032567,0,stoparea:SYNTUS:50785,,0,,
SYNTUS:40441003,40441003,"Loenen, Bergakkerweg",52.111179,6.024376,0,stoparea:SYNTUS:50783,,0,,
SYNTUS:40441004,40441004,"Loenen, Bergakkerweg",52.111242,6.024333,0,stoparea:SYNTUS:50783,,0,,
SYNTUS:40441005,40441005,"Loenen, Bruisbeek",52.116492,6.017415,0,stoparea:SYNTUS:50784,,0,,
SYNTUS:40441006,40441006,"Loenen, Bruisbeek",52.116123,6.017556,0,stoparea:SYNTUS:50784,,1,,
SYNTUS:40441007,40441007,"Loenen, Leeuwenbergweg",52.119144,6.01735,0,stoparea:SYNTUS:50788,,1,,
SYNTUS:40441008,40441008,"Loenen, Leeuwenbergweg",52.119315,6.017352,0,stoparea:SYNTUS:50788,,1,,
SYNTUS:40441009,40441009,"Loenen, Hoge Bergweg",52.13426,6.000708,0,stoparea:SYNTUS:50786,,0,,
SYNTUS:40441010,40441010,"Loenen, Hoge Bergweg",52.134305,6.000752,0,stoparea:SYNTUS:50786,,0,,
SYNTUS:40441011,40441011,"Loenen, Hoofdweg",52.136106,6.038609,0,stoparea:SYNTUS:50787,,0,,
SYNTUS:40441014,40441014,"Loenen, Voorsterweg",52.133455,6.041827,0,stoparea:SYNTUS:50789,,0,,
SYNTUS:40451005,40451005,"Beekbergen, Berg en Dalweg",52.152298,5.959882,0,stoparea:SYNTUS:50353,,0,,
SYNTUS:40451007,40451007,"Beekbergen, De Smittenberg",52.158916,5.959353,0,stoparea:SYNTUS:50354,,1,,
SYNTUS:40451008,40451008,"Beekbergen, De Smittenberg",52.160045,5.960142,0,stoparea:SYNTUS:50354,,0,,
SYNTUS:40451009,40451009,"Beekbergen, Hagenbrug",52.163714,5.961519,0,stoparea:SYNTUS:50357,,1,,
SYNTUS:40451010,40451010,"Beekbergen, Hagenbrug",52.163731,5.961738,0,stoparea:SYNTUS:50357,,1,,
SYNTUS:40451011,40451011,"Beekbergen, Engelanderweg",52.170103,5.961981,0,stoparea:SYNTUS:50356,,0,,
SYNTUS:40451012,40451012,"Beekbergen, Engelanderweg",52.170713,5.962165,0,stoparea:SYNTUS:50356,,0,,
SYNTUS:40451013,40451013,"Beekbergen, De Wipselberg",52.143494,5.98627,0,stoparea:SYNTUS:50355,,0,,
SYNTUS:40451014,40451014,"Beekbergen, De Wipselberg",52.14383,5.9855,0,stoparea:SYNTUS:50355,,0,,
SYNTUS:40451015,40451015,"Beekbergen, Hulleweg",52.149671,5.976899,0,stoparea:SYNTUS:50358,,0,,
SYNTUS:40451016,40451016,"Beekbergen, Hulleweg",52.15034,5.976104,0,stoparea:SYNTUS:50358,,1,,
SYNTUS:40451017,40451017,"Beekbergen, Zonnehuis",52.158342,5.968289,0,stoparea:SYNTUS:50363,,1,,
SYNTUS:40451018,40451018,"Beekbergen, Zonnehuis",52.158162,5.96836,0,stoparea:SYNTUS:50363,,0,,
SYNTUS:40451019,40451019,"Beekbergen, Kerkweg",52.159284,5.963245,0,stoparea:SYNTUS:50359,,0,,
SYNTUS:40451020,40451020,"Beekbergen, Kerkweg",52.159541,5.964023,0,stoparea:SYNTUS:50359,,1,,
SYNTUS:40451021,40451021,"Beekbergen, Koningsweg",52.1549,5.969969,0,stoparea:SYNTUS:50360,,1,,
SYNTUS:40451022,40451022,"Beekbergen, Koningsweg",52.156119,5.969005,0,stoparea:SYNTUS:50360,,1,,
SYNTUS:40451034,40451034,"Apeldoorn, Laan van Westenenk",52.179952,5.962196,0,stoparea:SYNTUS:50225,,1,,
SYNTUS:40451075,40451075,"Apeldoorn, Kapelmeestershoeve",52.18867,6.006824,0,stoparea:SYNTUS:50137,,1,,
SYNTUS:40451076,40451076,"Apeldoorn, Kapelmeestershoeve",52.188697,6.006736,0,stoparea:SYNTUS:50137,,1,,
SYNTUS:40451077,40451077,"Apeldoorn, De Eglantier",52.196402,6.006302,0,stoparea:SYNTUS:50072,,1,,
SYNTUS:40451078,40451078,"Apeldoorn, De Eglantier",52.196049,6.006882,0,stoparea:SYNTUS:50072,,1,,
SYNTUS:40451096,40451096,"Apeldoorn, Laan van Erica",52.201919,5.998012,0,stoparea:SYNTUS:50145,,1,,
SYNTUS:40451097,40451097,"Apeldoorn, Jaromirgaarde",52.201187,6.00062,0,stoparea:SYNTUS:50130,,1,,
SYNTUS:40451098,40451098,"Apeldoorn, Jaromirgaarde",52.201206,6.000386,0,stoparea:SYNTUS:50130,,1,,
SYNTUS:40451099,40451099,"Apeldoorn, Rademakersdonk",52.198539,6.003304,0,stoparea:SYNTUS:50193,,1,,
SYNTUS:40451100,40451100,"Apeldoorn, Rademakersdonk",52.197808,6.003879,0,stoparea:SYNTUS:50193,,1,,
SYNTUS:40451101,40451101,"Apeldoorn, Valkeniersdonk",52.194693,6.010067,0,stoparea:SYNTUS:50234,,1,,
SYNTUS:40451102,40451102,"Apeldoorn, Valkeniersdonk",52.194304,6.0105,0,stoparea:SYNTUS:50234,,0,,
SYNTUS:40451103,40451103,"Apeldoorn, Turfstekershoeve",52.190923,6.012354,0,stoparea:SYNTUS:50230,,1,,
SYNTUS:40451105,40451105,"Apeldoorn, Landdrostlaan",52.186892,6.004708,0,stoparea:SYNTUS:50156,,0,,
SYNTUS:40451106,40451106,"Apeldoorn, Landdrostlaan",52.186434,6.004628,0,stoparea:SYNTUS:50156,,0,,
SYNTUS:40451129,40451129,"Apeldoorn, Burgersveld",52.193808,5.993527,0,stoparea:SYNTUS:50057,,1,,
SYNTUS:40451143,40451143,"Apeldoorn, Soldeniersveld",52.186163,6.001554,0,stoparea:SYNTUS:50213,,1,,
SYNTUS:40451145,40451145,"Apeldoorn, Schepenenveld",52.191291,5.991928,0,stoparea:SYNTUS:50206,,1,,
SYNTUS:40451153,40451153,"Apeldoorn, Griffiersveld",52.190362,5.994285,0,stoparea:SYNTUS:50108,,1,,
SYNTUS:40451161,40451161,"Apeldoorn, Pottenbakkersdonk",52.197781,6.014088,0,stoparea:SYNTUS:50187,,1,,
SYNTUS:40451163,40451163,"Apeldoorn, Raadsherenveld",52.187139,5.996932,0,stoparea:SYNTUS:50192,,1,,
SYNTUS:40451165,40451165,"Apeldoorn, Rentmeestersveld",52.189298,6.001758,0,stoparea:SYNTUS:50198,,1,,
SYNTUS:40451169,40451169,"Apeldoorn, Zilversmidshoeve",52.193618,6.017686,0,stoparea:SYNTUS:50252,,0,,
SYNTUS:40451173,40451173,"Apeldoorn, Marskramersdonk",52.197614,6.011716,0,stoparea:SYNTUS:50167,,0,,
SYNTUS:40451181,40451181,"Apeldoorn, Ferguutgaarde",52.19358,5.995923,0,stoparea:SYNTUS:50097,,1,,
SYNTUS:40451182,40451182,"Apeldoorn, De Heemgaard",52.191934,6.001282,0,stoparea:SYNTUS:50073,,1,,
SYNTUS:40451183,40451183,"Apeldoorn, De Heemgaard",52.191906,6.001487,0,stoparea:SYNTUS:50073,,1,,
SYNTUS:40451210,40451210,"Apeldoorn, Ferguutgaarde",52.193518,5.99582,0,stoparea:SYNTUS:50097,,1,,
SYNTUS:40451252,40451252,"Apeldoorn, Kooikersdreef",52.197409,5.990695,0,stoparea:SYNTUS:50142,,1,,
SYNTUS:40451259,40451259,"Apeldoorn, Parlevinkershoeve",52.189559,6.011955,0,stoparea:SYNTUS:50183,,0,,
SYNTUS:40451333,40451333,"Apeldoorn, Ekro",52.179169,5.973517,0,stoparea:SYNTUS:50090,,1,,
SYNTUS:40451343,40451343,"Apeldoorn, Waagmeestershoeve",52.191153,6.014873,0,stoparea:SYNTUS:50238,,1,,
SYNTUS:40451347,40451347,"Apeldoorn, Boswachtersveld",52.185162,5.998703,0,stoparea:SYNTUS:50055,,1,,
SYNTUS:40451351,40451351,"Apeldoorn, Eglantierlaan",52.190661,6.002522,0,stoparea:SYNTUS:50088,,1,,
SYNTUS:40451402,40451402,"Lieren, Veldbrugweg",52.163893,5.985272,0,stoparea:SYNTUS:50782,,0,,
SYNTUS:40451403,40451403,"Lieren, Veldbrugweg",52.163883,5.985447,0,stoparea:SYNTUS:50782,,0,,
SYNTUS:40451404,40451404,"Lieren, Tullekensmolenweg",52.161905,5.989089,0,stoparea:SYNTUS:50781,,0,,
SYNTUS:40451405,40451405,"Lieren, Tullekensmolenweg",52.16211,5.989326,0,stoparea:SYNTUS:50781,,0,,
SYNTUS:40451406,40451406,"Lieren, Molenberg",52.160654,5.992828,0,stoparea:SYNTUS:50780,,0,,
SYNTUS:40451407,40451407,"Lieren, Molenberg",52.16078,5.992888,0,stoparea:SYNTUS:50780,,0,,
SYNTUS:40451408,40451408,"Oosterhuizen, Dorpshuis",52.157363,6.005395,0,stoparea:SYNTUS:50862,,0,,
SYNTUS:40451409,40451409,"Oosterhuizen, Dorpshuis",52.157561,6.005266,0,stoparea:SYNTUS:50862,,0,,
SYNTUS:40451412,40451412,"Oosterhuizen, Wittekruisweg",52.156087,6.006868,0,stoparea:SYNTUS:50872,,0,,
SYNTUS:40451413,40451413,"Oosterhuizen, Wittekruisweg",52.156186,6.006957,0,stoparea:SYNTUS:50872,,0,,
SYNTUS:40451414,40451414,"Oosterhuizen, Vinkenkamp",52.152322,6.022027,0,stoparea:SYNTUS:50870,,0,,
SYNTUS:40451415,40451415,"Oosterhuizen, Vinkenkamp",52.152529,6.021854,0,stoparea:SYNTUS:50870,,0,,
SYNTUS:40451416,40451416,"Oosterhuizen, Veendijk",52.152097,6.03193,0,stoparea:SYNTUS:50869,,0,,
SYNTUS:40451417,40451417,"Oosterhuizen, Veendijk",52.152239,6.03221,0,stoparea:SYNTUS:50869,,0,,
SYNTUS:40451418,40451418,"Oosterhuizen, Camping Bosgraaf",52.144866,6.036063,0,stoparea:SYNTUS:50859,,0,,
SYNTUS:40451459,40451459,"Oosterhuizen, Achterse Kerkweg",52.158327,6.00836,0,stoparea:SYNTUS:50857,,0,,
SYNTUS:40451460,40451460,"Oosterhuizen, Achterse Kerkweg",52.158396,6.008829,0,stoparea:SYNTUS:50857,,0,,
SYNTUS:40451461,40451461,"Apeldoorn, Wilmersdorf",52.181808,5.991975,0,stoparea:SYNTUS:50246,,0,,
SYNTUS:40451462,40451462,"Apeldoorn, Wilmersdorf",52.18249,5.993944,0,stoparea:SYNTUS:50246,,0,,
SYNTUS:40451501,40451501,"Apeldoorn, Laan van Malkenschoten",52.178165,5.961968,0,stoparea:SYNTUS:51184,,1,,
SYNTUS:40451502,40451502,"Apeldoorn, Laan van Malkenschoten",52.178272,5.962116,0,stoparea:SYNTUS:51184,,1,,
SYNTUS:40451512,40451512,"Apeldoorn, Rentmeestersveld",52.189345,6.001451,0,stoparea:SYNTUS:50198,,0,,
SYNTUS:40461001,40461001,"Harskamp, Museum Schietkamp",52.123072,5.75966,0,stoparea:SYNTUS:50664,,1,,
SYNTUS:40461003,40461003,"Harskamp, Centrum",52.127462,5.755432,0,stoparea:SYNTUS:50658,,1,,
SYNTUS:40461004,40461004,"Harskamp, Centrum",52.126894,5.756143,0,stoparea:SYNTUS:50658,,1,,
SYNTUS:40461005,40461005,"Harskamp, De Spil",52.131151,5.751475,0,stoparea:SYNTUS:50659,,1,,
SYNTUS:40461006,40461006,"Harskamp, De Spil",52.131078,5.75165,0,stoparea:SYNTUS:50659,,1,,
SYNTUS:40461007,40461007,"Harskamp, Kraatsweg",52.133176,5.75047,0,stoparea:SYNTUS:50662,,1,,
SYNTUS:40461008,40461008,"Harskamp, Kraatsweg",52.133563,5.75037,0,stoparea:SYNTUS:50662,,1,,
SYNTUS:40461009,40461009,"Harskamp, Radioweg",52.137091,5.748763,0,stoparea:SYNTUS:50665,,1,,
SYNTUS:40461010,40461010,"Harskamp, Radioweg",52.138299,5.747648,0,stoparea:SYNTUS:50665,,1,,
SYNTUS:40461011,40461011,"Harskamp, Kraaikamperweg",52.144828,5.740396,0,stoparea:SYNTUS:50663,,0,,
SYNTUS:40461012,40461012,"Harskamp, Kraaikamperweg",52.145487,5.739496,0,stoparea:SYNTUS:50663,,0,,
SYNTUS:40461013,40461013,"Harskamp, Hoog Buurloseweg",52.14676,5.73749,0,stoparea:SYNTUS:50661,,0,,
SYNTUS:40461014,40461014,"Harskamp, Hoog Buurloseweg",52.147879,5.735921,0,stoparea:SYNTUS:50661,,1,,
SYNTUS:40461015,40461015,"Harskamp, Westenengerdijk",52.123607,5.725159,0,stoparea:SYNTUS:50666,,1,,
SYNTUS:40461017,40461017,"Harskamp, Harscamp",52.129804,5.748135,0,stoparea:SYNTUS:50660,,0,,
SYNTUS:40461018,40461018,"Harskamp, Harscamp",52.129936,5.748983,0,stoparea:SYNTUS:50660,,0,,
SYNTUS:40463001,40463001,"Stroe, Hazendonkweg",52.150836,5.730099,0,stoparea:SYNTUS:50957,,0,,
SYNTUS:40463002,40463002,"Stroe, Hazendonkweg",52.152425,5.727423,0,stoparea:SYNTUS:50957,,0,,
SYNTUS:40463004,40463004,"Stroe, Heetweg",52.158823,5.715327,0,stoparea:SYNTUS:50956,,1,,
SYNTUS:40471126,40471126,"Apeldoorn, Beeklustweg",52.193169,5.946279,0,stoparea:SYNTUS:50048,,1,,
SYNTUS:40471131,40471131,"Apeldoorn, De Ugchelse Kei",52.185029,5.93616,0,stoparea:SYNTUS:50077,,1,,
SYNTUS:40471152,40471152,"Apeldoorn, Randerode",52.179993,5.95009,0,stoparea:SYNTUS:50194,,0,,
SYNTUS:40471170,40471170,"Apeldoorn, Middachten",52.187023,5.951715,0,stoparea:SYNTUS:50171,,1,,
SYNTUS:40471171,40471171,"Apeldoorn, Middachten",52.186275,5.952027,0,stoparea:SYNTUS:50171,,1,,
SYNTUS:40471175,40471175,"Apeldoorn, Vlietweg",52.190719,5.951191,0,stoparea:SYNTUS:50151,,1,,
SYNTUS:40471228,40471228,"Apeldoorn, Laan van Spitsbergen",52.193447,5.937054,0,stoparea:SYNTUS:50150,,0,,
SYNTUS:40471295,40471295,"Apeldoorn, Ugchelse Grensweg",52.186911,5.941111,0,stoparea:SYNTUS:50231,,1,,
SYNTUS:40471301,40471301,"Apeldoorn, Richtersweg",52.185257,5.941208,0,stoparea:SYNTUS:50199,,0,,
SYNTUS:40471319,40471319,"Apeldoorn, Hulkestein",52.183657,5.937459,0,stoparea:SYNTUS:50125,,1,,
SYNTUS:40471327,40471327,"Apeldoorn, G.P. Duuringlaan",52.182484,5.934506,0,stoparea:SYNTUS:50107,,1,,
SYNTUS:40471338,40471338,"Apeldoorn, Derk Kamphuisweg",52.188669,5.943795,0,stoparea:SYNTUS:50075,,1,,
SYNTUS:40471339,40471339,"Apeldoorn, Derk Kamphuisweg",52.189379,5.943906,0,stoparea:SYNTUS:50075,,0,,
SYNTUS:40471349,40471349,"Apeldoorn, Molecatenlaan",52.182168,5.946214,0,stoparea:SYNTUS:50173,,0,,
SYNTUS:40471434,40471434,"Apeldoorn, Heidehof",52.179411,5.932289,0,stoparea:SYNTUS:50112,,1,,
SYNTUS:40471463,40471463,"Apeldoorn, Hoog Buurloseweg",52.184787,5.916387,0,stoparea:SYNTUS:50122,,1,,
SYNTUS:40471464,40471464,"Apeldoorn, Hoog Buurloseweg",52.184793,5.916972,0,stoparea:SYNTUS:50122,,1,,
SYNTUS:40471465,40471465,"Apeldoorn, Van der Valk/De Cantharel",52.177961,5.913119,0,stoparea:SYNTUS:50070,,0,,
SYNTUS:40471466,40471466,"Apeldoorn, Van der Valk/De Cantharel",52.177968,5.913572,0,stoparea:SYNTUS:50070,,0,,
SYNTUS:40471467,40471467,"Apeldoorn, Gelre Ziekenhuis",52.182093,5.946944,0,stoparea:SYNTUS:50103,,1,,
SYNTUS:40480015,40480015,"Hoenderloo, Kronkelweg",52.124227,5.830828,0,stoparea:SYNTUS:50879,,1,,
SYNTUS:40480016,40480016,"Hoenderloo, Kronkelweg",52.124499,5.832685,0,stoparea:SYNTUS:50879,,1,,
SYNTUS:40482002,40482002,"De Hoge Veluwe, Uitgang Hoenderloo",52.117936,5.871793,0,stoparea:SYNTUS:50402,,0,. ,
SYNTUS:40482003,40482003,"De Hoge Veluwe, Bezoekerscentrum",52.101315,5.828893,0,stoparea:SYNTUS:50723,,0,,
SYNTUS:40482004,40482004,"De Hoge Veluwe, Bezoekerscentrum",52.101332,5.829199,0,stoparea:SYNTUS:50723,,0,,
SYNTUS:40482005,40482005,"De Hoge Veluwe, Krol. Muller Museum",52.097666,5.814321,0,stoparea:SYNTUS:50401,,0,s.,
SYNTUS:40482006,40482006,"De Hoge Veluwe, Krol. Muller Museum",52.097611,5.814394,0,stoparea:SYNTUS:50401,,0,s.,
SYNTUS:40482007,40482007,"De Hoge Veluwe, Ingang Otterlo",52.102966,5.786844,0,stoparea:SYNTUS:50400,,0,,
SYNTUS:40512001,40512001,"Ede, Station Ede-Wag./Noordzijde",52.028582,5.672014,0,stoparea:SYNTUS:50460,,1,,
SYNTUS:40512002,40512002,"Ede, Station Ede-Wag./Noordzijde",52.028428,5.672537,0,stoparea:SYNTUS:50460,,1,,
SYNTUS:40512003,40512003,"Ede, Moreelsestraat",52.018294,5.659012,0,stoparea:SYNTUS:50445,,0,,
SYNTUS:40512004,40512004,"Ede, Moreelsestraat",52.018312,5.658939,0,stoparea:SYNTUS:50445,,1,,
SYNTUS:40512005,40512005,"Bennekom, Vossenweg",52.008111,5.673966,0,stoparea:SYNTUS:50373,,1,,
SYNTUS:40512006,40512006,"Bennekom, Vossenweg",52.00839,5.673779,0,stoparea:SYNTUS:50373,,1,,
SYNTUS:40512007,40512007,"Ede, Ziekenhuis Gelderse Vallei",52.022098,5.646374,0,stoparea:SYNTUS:50519,,0,,
SYNTUS:40512008,40512008,"Ede, Ziekenhuis Gelderse Vallei",52.022169,5.646418,0,stoparea:SYNTUS:50519,,0,,
SYNTUS:40512009,40512009,"Bennekom, Strooyweg",52.002786,5.675374,0,stoparea:SYNTUS:50372,,0,,
SYNTUS:40512010,40512010,"Bennekom, Strooyweg",52.001556,5.674827,0,stoparea:SYNTUS:50372,,1,,
SYNTUS:40512011,40512011,"Bennekom, Molenstraat",52.000685,5.670948,0,stoparea:SYNTUS:50371,,1,,
SYNTUS:40512012,40512012,"Bennekom, Molenstraat",52.000595,5.670845,0,stoparea:SYNTUS:50371,,1,,
SYNTUS:40512013,40512013,"Bennekom, Hof van St. Pieter",51.997627,5.67186,0,stoparea:SYNTUS:50370,,1,,
SYNTUS:40512014,40512014,"Bennekom, Hof van St. Pieter",51.997267,5.671916,0,stoparea:SYNTUS:50370,,1,,
SYNTUS:40512015,40512015,"Bennekom, Bart van Elstplantsoen",51.996504,5.675144,0,stoparea:SYNTUS:50365,,1,,
SYNTUS:40512016,40512016,"Bennekom, Bart van Elstplantsoen",51.996412,5.675915,0,stoparea:SYNTUS:50365,,1,,
SYNTUS:40512018,40512018,"Bennekom, Bosweg",51.993505,5.677673,0,stoparea:SYNTUS:50364,,1,,
SYNTUS:40512019,40512019,"Ede, Horalaan",52.020069,5.672309,0,stoparea:SYNTUS:50368,,0,,
SYNTUS:40512020,40512020,"Ede, Horalaan",52.018622,5.672242,0,stoparea:SYNTUS:50368,,0,,
SYNTUS:40512021,40512021,"Ede, De Reehorst",52.024716,5.672353,0,stoparea:SYNTUS:50454,,1,,
SYNTUS:40512022,40512022,"Ede, De Reehorst",52.024941,5.672107,0,stoparea:SYNTUS:50454,,1,,
SYNTUS:40512023,40512023,"Ede, Bovenbuurtweg",52.024747,5.65943,0,stoparea:SYNTUS:50444,,1,,
SYNTUS:40512024,40512024,"Ede, Bovenbuurtweg",52.024801,5.659153,0,stoparea:SYNTUS:50444,,1,,
SYNTUS:40512025,40512025,"Ede, Jan Vermeerstraat",52.016902,5.654414,0,stoparea:SYNTUS:50473,,1,,
SYNTUS:40512026,40512026,"Ede, Jan Vermeerstraat",52.016947,5.65459,0,stoparea:SYNTUS:50473,,1,,
SYNTUS:40512027,40512027,"Ede, Stadspoort",52.016905,5.649068,0,stoparea:SYNTUS:50508,,1,,
SYNTUS:40512028,40512028,"Ede, Stadspoort",52.01677,5.649461,0,stoparea:SYNTUS:50508,,1,,
SYNTUS:40512030,40512030,"Ede, Ziekenhuis Gelderse Vallei",52.023263,5.647648,0,stoparea:SYNTUS:50519,,1,,
SYNTUS:40512031,40512031,"Ede, Van Steenbergenweg",52.023822,5.642756,0,stoparea:SYNTUS:50515,,1,,
SYNTUS:40512033,40512033,"Ede, Prof. Oudpark",52.023456,5.637378,0,stoparea:SYNTUS:50492,,1,,
SYNTUS:40512035,40512035,"Ede, Coornhertstate",52.022356,5.634735,0,stoparea:SYNTUS:50448,,1,,
SYNTUS:40512036,40512036,"Ede, Coornhertstate",52.022769,5.635218,0,stoparea:SYNTUS:50448,,1,,
SYNTUS:40512037,40512037,"Ede, 't Riet",52.020218,5.638525,0,stoparea:SYNTUS:50513,,1,,
SYNTUS:40512039,40512039,"Ede, Ben Goerionsingel",52.016877,5.641449,0,stoparea:SYNTUS:50440,,1,,
SYNTUS:40512040,40512040,"Ede, Ben Goerionsingel",52.016814,5.64174,0,stoparea:SYNTUS:50440,,0,,
SYNTUS:40512131,40512131,"Ede, Kenniscampus",52.019081,5.664567,0,stoparea:SYNTUS:50518,,1,,
SYNTUS:40512132,40512132,"Ede, Kenniscampus",52.019205,5.665209,0,stoparea:SYNTUS:50518,,1,,
SYNTUS:40512133,40512133,"Ede, Station Ede-Wag./Zuidzijde",52.027413,5.672225,0,stoparea:SYNTUS:50461,,1,,
SYNTUS:40512153,40512153,"Ede, De Gelderhorst",52.016404,5.648424,0,stoparea:SYNTUS:50451,,0,,
SYNTUS:40512154,40512154,"Ede, De Gelderhorst",52.017099,5.646826,0,stoparea:SYNTUS:50451,,0,,
SYNTUS:40512201,40512201,"Bennekom, Halderbrink",52.003063,5.657099,0,stoparea:SYNTUS:50366,,1,,
SYNTUS:40512202,40512202,"Bennekom, Halderbrink",52.001867,5.657572,0,stoparea:SYNTUS:50366,,1,,
SYNTUS:40512203,40512203,"Bennekom, Hoekelumse Brinkweg",52.01214,5.67306,0,stoparea:SYNTUS:50369,,1,,
SYNTUS:40512204,40512204,"Bennekom, Hoekelumse Brinkweg",52.011232,5.672981,0,stoparea:SYNTUS:50369,,1,,
SYNTUS:40512207,40512207,"Bennekom, Heidelaan",52.005637,5.674635,0,stoparea:SYNTUS:50367,,0,,
SYNTUS:40512208,40512208,"Bennekom, Heidelaan",52.003965,5.674988,0,stoparea:SYNTUS:50367,,0,,
SYNTUS:40512999,40512999,"Ede, Ziekenhuis Gelderse Vallei",52.02339,5.647212,0,stoparea:SYNTUS:50519,,1,,
SYNTUS:40513001,40513001,"Ede, Cultura",52.046229,5.666936,0,stoparea:SYNTUS:51193,,0,,
SYNTUS:40513002,40513002,"Ede, Cultura",52.046247,5.666951,0,stoparea:SYNTUS:51193,,0,,
SYNTUS:40513010,40513010,"Ede, De Klinkenberg",52.038119,5.689811,0,stoparea:SYNTUS:51197,,0,,
SYNTUS:40513012,40513012,"Ede, Bethanie",52.040359,5.674348,0,stoparea:SYNTUS:51198,,0,,
SYNTUS:40513013,40513013,"Ede, Maanderzand",52.032175,5.665391,0,stoparea:SYNTUS:51199,,0,,
SYNTUS:40513014,40513014,"Ede, Maanderzand",52.032426,5.665378,0,stoparea:SYNTUS:51199,,0,,
SYNTUS:40513015,40513015,"Ede, Beatrixpark",52.03345,5.661873,0,stoparea:SYNTUS:51200,,0,,
SYNTUS:40513016,40513016,"Ede, Beatrixpark",52.03345,5.661873,0,stoparea:SYNTUS:51200,,0,,
SYNTUS:40513019,40513019,"Ede, Zuiderkroon",52.028928,5.654705,0,stoparea:SYNTUS:51202,,0,,
SYNTUS:40513020,40513020,"Ede, Zuiderkroon",52.028945,5.654894,0,stoparea:SYNTUS:51202,,0,,
SYNTUS:40513021,40513021,"Ede, Albert Heijn XL",52.02887,5.648366,0,stoparea:SYNTUS:51203,,0,,
SYNTUS:40513022,40513022,"Ede, Albert Heijn XL",52.028816,5.648336,0,stoparea:SYNTUS:51203,,0,,
SYNTUS:40513027,40513027,"Ede, Billitonlaan/Timorlaan",52.042852,5.654016,0,stoparea:SYNTUS:51206,,0,,
SYNTUS:40513028,40513028,"Ede, Billitonlaan/Timorlaan",52.042799,5.653782,0,stoparea:SYNTUS:51206,,0,,
SYNTUS:40513029,40513029,"Ede, Kerkweg",52.031157,5.658725,0,stoparea:SYNTUS:51209,,0,,
SYNTUS:40513030,40513030,"Ede, Kerkweg",52.031319,5.658668,0,stoparea:SYNTUS:51209,,0,,
SYNTUS:40513031,40513031,"Ede, Koekeltseboslaan",52.036894,5.645381,0,stoparea:SYNTUS:51208,,1,,
SYNTUS:40513032,40513032,"Ede, Koekeltseboslaan",52.037363,5.644801,0,stoparea:SYNTUS:51208,,1,,
SYNTUS:40513033,40513033,"Ede, Langenberg",52.041368,5.691451,0,stoparea:SYNTUS:51211,,0,,
SYNTUS:40513034,40513034,"Ede, Langenberg",52.041368,5.691451,0,stoparea:SYNTUS:51211,,0,,
SYNTUS:40513035,40513035,"Ede, Paasberg",52.043146,5.674059,0,stoparea:SYNTUS:51210,,0,,
SYNTUS:40513036,40513036,"Ede, Paasberg",52.043209,5.674118,0,stoparea:SYNTUS:51210,,0,,
SYNTUS:40513037,40513037,"Ede, Prof. Oudpark",52.023461,5.639374,0,stoparea:SYNTUS:50492,,1,,
SYNTUS:40513038,40513038,"Ede, 't Riet",52.020848,5.638048,0,stoparea:SYNTUS:50513,,0,,
SYNTUS:40513039,40513039,"Ede, Belvedere",52.034061,5.673287,0,stoparea:SYNTUS:51218,,0,,
SYNTUS:40522125,40522125,"Ede, La Vendula",52.10277,5.703648,0,stoparea:SYNTUS:50479,,0,,
SYNTUS:40528001,40528001,"Wekerom, Roekelseweg",52.106572,5.706653,0,stoparea:SYNTUS:51116,,0,,
SYNTUS:40528002,40528002,"Wekerom, Roekelseweg",52.107208,5.707679,0,stoparea:SYNTUS:51116,,0,,
SYNTUS:40528003,40528003,"Wekerom, Wekeromse Buurtweg",52.110046,5.711874,0,stoparea:SYNTUS:51118,,1,,
SYNTUS:40528004,40528004,"Wekerom, Wekeromse Buurtweg",52.110555,5.712812,0,stoparea:SYNTUS:51118,,1,,
SYNTUS:40528006,40528006,"De Valk, Garage Veldhuizen",52.120268,5.700881,0,stoparea:SYNTUS:50409,,0,,
SYNTUS:40528007,40528007,"Wekerom, Kruispunt",52.112951,5.717633,0,stoparea:SYNTUS:51115,,0,,
SYNTUS:40528008,40528008,"Wekerom, Kruispunt",52.113317,5.718438,0,stoparea:SYNTUS:51115,,1,,
SYNTUS:40528009,40528009,"Wekerom, A.G. Wijersweg",52.115266,5.715767,0,stoparea:SYNTUS:51112,,0,,
SYNTUS:40528010,40528010,"Wekerom, A.G. Wijersweg",52.115356,5.715782,0,stoparea:SYNTUS:51112,,1,,
SYNTUS:40528011,40528011,"Wekerom, Dorpsplein",52.11203,5.715962,0,stoparea:SYNTUS:51114,,0,,
SYNTUS:40528012,40528012,"Wekerom, Dorpsplein",52.112038,5.716006,0,stoparea:SYNTUS:51114,,0,,
SYNTUS:40528026,40528026,"Harskamp, Westenengerdijk",52.123839,5.725759,0,stoparea:SYNTUS:50666,,0,,
SYNTUS:40541002,40541002,"Loenen, Harderwijkerweg",52.109182,6.032888,0,stoparea:SYNTUS:50785,,0,,
SYNTUS:40542001,40542001,"Hall, Hallsebrug",52.104216,6.08421,0,stoparea:SYNTUS:50605,,0,,
SYNTUS:40542002,40542002,"Hall, Hallsebrug",52.104439,6.084447,0,stoparea:SYNTUS:50605,,0,,
SYNTUS:40543001,40543001,"Eerbeek, 't Veentje",52.088597,6.066894,0,stoparea:SYNTUS:50535,,1,,
SYNTUS:40543003,40543003,"Eerbeek, Coldenhovenseweg",52.095519,6.057134,0,stoparea:SYNTUS:50539,,0,,
SYNTUS:40543004,40543004,"Eerbeek, Coldenhovenseweg",52.095359,6.056928,0,stoparea:SYNTUS:50539,,0,,
SYNTUS:40543005,40543005,"Eerbeek, Loubergweg",52.099315,6.062942,0,stoparea:SYNTUS:50530,,1,,
SYNTUS:40543006,40543006,"Eerbeek, Loubergweg",52.099207,6.06294,0,stoparea:SYNTUS:50530,,1,,
SYNTUS:40543007,40543007,"Eerbeek, Centrum",52.104738,6.067213,0,stoparea:SYNTUS:50523,,1,,
SYNTUS:40543008,40543008,"Eerbeek, Centrum",52.10456,6.068319,0,stoparea:SYNTUS:50523,,1,,
SYNTUS:40543009,40543009,"Eerbeek, Offenbachstraat",52.105796,6.061332,0,stoparea:SYNTUS:50532,,1,,
SYNTUS:40543010,40543010,"Eerbeek, Offenbachstraat",52.105763,6.062324,0,stoparea:SYNTUS:50532,,1,,
SYNTUS:40543011,40543011,"Eerbeek, Ringlaan",52.105734,6.05177,0,stoparea:SYNTUS:50533,,1,,
SYNTUS:40543012,40543012,"Eerbeek, Ringlaan",52.10581,6.052501,0,stoparea:SYNTUS:50533,,1,,
SYNTUS:40543013,40543013,"Eerbeek, Vondellaan",52.106067,6.057993,0,stoparea:SYNTUS:50536,,1,,
SYNTUS:40543014,40543014,"Eerbeek, Vondellaan",52.105974,6.05535,0,stoparea:SYNTUS:50536,,1,,
SYNTUS:40543015,40543015,"Eerbeek, 't Hungeling",52.103885,6.080833,0,stoparea:SYNTUS:50534,,0,,
SYNTUS:40543016,40543016,"Eerbeek, 't Hungeling",52.104056,6.080835,0,stoparea:SYNTUS:50534,,0,,
SYNTUS:40543020,40543020,"Eerbeek, De Beekwal",52.10583,6.069448,0,stoparea:SYNTUS:50524,,0,,
SYNTUS:40543021,40543021,"Eerbeek, De Beekwal",52.105928,6.069639,0,stoparea:SYNTUS:50524,,0,,
SYNTUS:40543027,40543027,"Eerbeek, Loenenseweg",52.105275,6.050187,0,stoparea:SYNTUS:50529,,0,,
SYNTUS:40543028,40543028,"Eerbeek, Bijenkorf",52.110614,6.053361,0,stoparea:SYNTUS:50520,,0,,
SYNTUS:40543029,40543029,"Eerbeek, Bijenkorf",52.110818,6.05386,0,stoparea:SYNTUS:50520,,0,,
SYNTUS:40543030,40543030,"Eerbeek, Blekerserf",52.111109,6.058054,0,stoparea:SYNTUS:50521,,0,,
SYNTUS:40543031,40543031,"Eerbeek, Blekerserf",52.111601,6.058427,0,stoparea:SYNTUS:50521,,0,,
SYNTUS:40543032,40543032,"Eerbeek, Ydinkerf",52.110356,6.06086,0,stoparea:SYNTUS:50537,,0,,
SYNTUS:40543033,40543033,"Eerbeek, Ydinkerf",52.110275,6.06083,0,stoparea:SYNTUS:50537,,0,,
SYNTUS:40543034,40543034,"Eerbeek, Odinkerf",52.109717,6.064165,0,stoparea:SYNTUS:50531,,0,,
SYNTUS:40543035,40543035,"Eerbeek, Odinkerf",52.110003,6.064446,0,stoparea:SYNTUS:50531,,0,,
SYNTUS:40543036,40543036,"Eerbeek, Loenenseweg",52.105267,6.049982,0,stoparea:SYNTUS:50529,,0,,
SYNTUS:40543051,40543051,"Eerbeek, Landal Coldenhove",52.091799,6.034504,0,stoparea:SYNTUS:50528,,0,,
SYNTUS:40543052,40543052,"Eerbeek, Landal Coldenhove",52.091799,6.034504,0,stoparea:SYNTUS:50528,,0,,
SYNTUS:40543061,40543061,"Eerbeek, Zwembad",52.094296,6.0462,0,stoparea:SYNTUS:50538,,0,,
SYNTUS:40543062,40543062,"Eerbeek, Zwembad",52.094503,6.046203,0,stoparea:SYNTUS:50538,,0,,
SYNTUS:40543077,40543077,"Eerbeek, Kloosterstraat",52.102068,6.053,0,stoparea:SYNTUS:50527,,0,,
SYNTUS:40543081,40543081,"Eerbeek, Boerhavenlaan",52.105275,6.059718,0,stoparea:SYNTUS:50522,,0,,
SYNTUS:40548076,40548076,"Eerbeek, Dierenseweg",52.095834,6.088048,0,stoparea:SYNTUS:50525,,0,,
SYNTUS:40550001,40550001,"Apeldoorn, Van Haeftenkazerne",52.235782,5.957545,0,stoparea:SYNTUS:50110,,0,,
SYNTUS:40550002,40550002,"Apeldoorn, Van Haeftenkazerne",52.236269,5.957053,0,stoparea:SYNTUS:50110,,0,,
SYNTUS:40551001,40551001,"Apeldoorn, Station",52.209781,5.970189,0,stoparea:SYNTUS:50061,,1,A,
SYNTUS:40551003,40551003,"Apeldoorn, Marktplein",52.216098,5.964843,0,stoparea:SYNTUS:50166,,1,,
SYNTUS:40551004,40551004,"Apeldoorn, Marktplein",52.215594,5.965085,0,stoparea:SYNTUS:50166,,1,,
SYNTUS:40551005,40551005,"Apeldoorn, Oranjepark",52.219441,5.961272,0,stoparea:SYNTUS:50177,,1,,
SYNTUS:40551006,40551006,"Apeldoorn, Oranjepark",52.218981,5.958017,0,stoparea:SYNTUS:50177,,1,,
SYNTUS:40551013,40551013,"Apeldoorn, De Jagershuizen",52.234865,5.959304,0,stoparea:SYNTUS:50074,,1,,
SYNTUS:40551015,40551015,"Apeldoorn, Station",52.20958,5.970859,0,stoparea:SYNTUS:50061,,1,G,
SYNTUS:40551019,40551019,"Apeldoorn, Hoofdstraat",52.212264,5.96412,0,stoparea:SYNTUS:50123,,0,,
SYNTUS:40551020,40551020,"Apeldoorn, Hoofdstraat",52.212077,5.963811,0,stoparea:SYNTUS:50123,,0,,
SYNTUS:40551021,40551021,"Apeldoorn, Amaliapark",52.210669,5.96129,0,stoparea:SYNTUS:50063,,1,,
SYNTUS:40551022,40551022,"Apeldoorn, Amaliapark",52.210478,5.961712,0,stoparea:SYNTUS:50063,,1,,
SYNTUS:40551023,40551023,"Apeldoorn, Zichtweg",52.203069,5.958603,0,stoparea:SYNTUS:50251,,1,,
SYNTUS:40551024,40551024,"Apeldoorn, Zichtweg",52.203364,5.958943,0,stoparea:SYNTUS:50251,,1,,
SYNTUS:40551025,40551025,"Apeldoorn, Eendrachtstraat",52.199119,5.95943,0,stoparea:SYNTUS:50087,,1,,
SYNTUS:40551026,40551026,"Apeldoorn, Eendrachtstraat",52.198857,5.959822,0,stoparea:SYNTUS:50087,,0,,
SYNTUS:40551027,40551027,"Apeldoorn, Aluminiumweg",52.19535,5.962058,0,stoparea:SYNTUS:50038,,1,,
SYNTUS:40551028,40551028,"Apeldoorn, Aluminiumweg",52.195915,5.962285,0,stoparea:SYNTUS:50038,,1,,
SYNTUS:40551029,40551029,"Apeldoorn, Sebastiaanplein",52.192015,5.962162,0,stoparea:SYNTUS:50210,,0,,
SYNTUS:40551030,40551030,"Apeldoorn, Sebastiaanplein",52.193308,5.962251,0,stoparea:SYNTUS:50210,,1,,
SYNTUS:40551031,40551031,"Apeldoorn, Chopinlaan",52.186478,5.962061,0,stoparea:SYNTUS:50064,,1,,
SYNTUS:40551032,40551032,"Apeldoorn, Chopinlaan",52.187494,5.962176,0,stoparea:SYNTUS:50064,,1,,
SYNTUS:40551033,40551033,"Apeldoorn, Laan van Westenenk",52.179944,5.961991,0,stoparea:SYNTUS:50225,,1,,
SYNTUS:40551036,40551036,"Apeldoorn, Koningin Julianatoren",52.227902,5.916373,0,stoparea:SYNTUS:50140,,1,,
SYNTUS:40551037,40551037,"Apeldoorn, Paleis Het Loo",52.227627,5.944882,0,stoparea:SYNTUS:50182,,1,,
SYNTUS:40551038,40551038,"Apeldoorn, Paleis Het Loo",52.227415,5.944103,0,stoparea:SYNTUS:50182,,0,,
SYNTUS:40551039,40551039,"Apeldoorn, Bosweg",52.224654,5.950099,0,stoparea:SYNTUS:50054,,0,,
SYNTUS:40551040,40551040,"Apeldoorn, Bosweg",52.224456,5.950199,0,stoparea:SYNTUS:50054,,1,,
SYNTUS:40551041,40551041,"Apeldoorn, Marktplein",52.216116,5.964858,0,stoparea:SYNTUS:50166,,1,,
SYNTUS:40551043,40551043,"Apeldoorn, Canadalaan",52.220401,5.958021,0,stoparea:SYNTUS:50062,,0,,
SYNTUS:40551044,40551044,"Apeldoorn, Bilderdijklaan",52.216003,5.937756,0,stoparea:SYNTUS:50052,,1,,
SYNTUS:40551045,40551045,"Apeldoorn, Grote Kerk",52.221219,5.954314,0,stoparea:SYNTUS:50109,,1,,
SYNTUS:40551046,40551046,"Apeldoorn, Grote Kerk",52.221174,5.954211,0,stoparea:SYNTUS:50109,,1,,
SYNTUS:40551047,40551047,"Apeldoorn, Gedenknaald",52.226797,5.947506,0,stoparea:SYNTUS:50102,,0,,
SYNTUS:40551048,40551048,"Apeldoorn, Gedenknaald",52.226635,5.947504,0,stoparea:SYNTUS:50102,,1,,
SYNTUS:40551049,40551049,"Apeldoorn, Station",52.209579,5.970991,0,stoparea:SYNTUS:50061,,1,H,
SYNTUS:40551051,40551051,"Apeldoorn, Oosterlaan",52.218155,5.972406,0,stoparea:SYNTUS:50174,,1,,
SYNTUS:40551052,40551052,"Apeldoorn, Oosterlaan",52.218201,5.972348,0,stoparea:SYNTUS:50174,,0,,
SYNTUS:40551053,40551053,"Apeldoorn, Pinksterbloem",52.222741,5.981086,0,stoparea:SYNTUS:50185,,1,,
SYNTUS:40551054,40551054,"Apeldoorn, Pinksterbloem",52.222526,5.980849,0,stoparea:SYNTUS:50185,,1,,
SYNTUS:40551057,40551057,"Apeldoorn, Fauststraat",52.230642,5.979113,0,stoparea:SYNTUS:50095,,1,,
SYNTUS:40551058,40551058,"Apeldoorn, Fauststraat",52.230528,5.978555,0,stoparea:SYNTUS:50095,,1,,
SYNTUS:40551060,40551060,"Apeldoorn, Laan van de Dierenriem",52.238774,5.97786,0,stoparea:SYNTUS:50149,,1,,
SYNTUS:40551061,40551061,"Apeldoorn, Laan v/d Leeuw",52.245786,5.988144,0,stoparea:SYNTUS:50147,,1,,
SYNTUS:40551062,40551062,"Apeldoorn, Laan v/d Leeuw",52.246156,5.989672,0,stoparea:SYNTUS:50147,,1,,
SYNTUS:40551063,40551063,"Apeldoorn, Brug Deventerstraat",52.21668,5.970967,0,stoparea:SYNTUS:50056,,0,,
SYNTUS:40551064,40551064,"Apeldoorn, Brug Deventerstraat",52.216553,5.971185,0,stoparea:SYNTUS:50056,,0,,
SYNTUS:40551065,40551065,"Apeldoorn, Julianakerk",52.214843,5.980659,0,stoparea:SYNTUS:50134,,0,,
SYNTUS:40551066,40551066,"Apeldoorn, Julianakerk",52.214824,5.980703,0,stoparea:SYNTUS:50134,,0,,
SYNTUS:40551072,40551072,"Apeldoorn, GGNet",52.224871,6.010723,0,stoparea:SYNTUS:50214,,1,,
SYNTUS:40551079,40551079,"Apeldoorn, Gijsbrechtgaarde",52.202558,5.992564,0,stoparea:SYNTUS:50105,,1,,
SYNTUS:40551080,40551080,"Apeldoorn, Gijsbrechtgaarde",52.20245,5.992723,0,stoparea:SYNTUS:50105,,1,,
SYNTUS:40551081,40551081,"Apeldoorn, Welgelegenbrug",52.211256,5.977085,0,stoparea:SYNTUS:50242,,1,,
SYNTUS:40551082,40551082,"Apeldoorn, Welgelegenbrug",52.210969,5.977037,0,stoparea:SYNTUS:50242,,1,,
SYNTUS:40551087,40551087,"Apeldoorn, Apenheul",52.213877,5.927136,0,stoparea:SYNTUS:50039,,1,,
SYNTUS:40551089,40551089,"Apeldoorn, J. Fruytierschool",52.235071,5.965075,0,stoparea:SYNTUS:50132,,1,,
SYNTUS:40551091,40551091,"Apeldoorn, Wagenmakershoek",52.204645,5.98162,0,stoparea:SYNTUS:50239,,1,,
SYNTUS:40551092,40551092,"Apeldoorn, Wagenmakershoek",52.204607,5.981986,0,stoparea:SYNTUS:50239,,1,,
SYNTUS:40551093,40551093,"Apeldoorn, Glazeniershorst",52.204316,5.988141,0,stoparea:SYNTUS:50106,,1,,
SYNTUS:40551094,40551094,"Apeldoorn, Glazeniershorst",52.204126,5.988372,0,stoparea:SYNTUS:50106,,1,,
SYNTUS:40551095,40551095,"Apeldoorn, Laan van Erica",52.202393,5.996658,0,stoparea:SYNTUS:50145,,1,,
SYNTUS:40551100,40551100,"Apeldoorn, Gentiaanstraat",52.225662,5.982969,0,stoparea:SYNTUS:51232,,0,,
SYNTUS:40551109,40551109,"Apeldoorn, Balustrade",52.22166,6.012815,0,stoparea:SYNTUS:50044,,0,,
SYNTUS:40551110,40551110,"Apeldoorn, Hoofdstraat",52.211802,5.963134,0,stoparea:SYNTUS:50123,,0,,
SYNTUS:40551111,40551111,"Apeldoorn, Houttuinen Noord",52.213595,6.015072,0,stoparea:SYNTUS:50124,,1,,
SYNTUS:40551113,40551113,"Apeldoorn, Belastingkantoor",52.211714,5.940103,0,stoparea:SYNTUS:50050,,0,,
SYNTUS:40551115,40551115,"Apeldoorn, Station",52.2096,5.970304,0,stoparea:SYNTUS:50061,,1,C,
SYNTUS:40551119,40551119,"Apeldoorn, IJsselstraat",52.192797,5.974939,0,stoparea:SYNTUS:50126,,1,,
SYNTUS:40551120,40551120,"Apeldoorn, Aristotelesstraat",52.223743,5.997857,0,stoparea:SYNTUS:50041,,0,,
SYNTUS:40551122,40551122,"Apeldoorn, Station",52.2096,5.970435,0,stoparea:SYNTUS:50061,,1,D,
SYNTUS:40551123,40551123,"Apeldoorn, Station",52.20959,5.970596,0,stoparea:SYNTUS:50061,,1,E,
SYNTUS:40551124,40551124,"Apeldoorn, Bibliotheek",52.215143,5.95807,0,stoparea:SYNTUS:50051,,1,,
SYNTUS:40551125,40551125,"Apeldoorn, Bibliotheek",52.214983,5.957732,0,stoparea:SYNTUS:50051,,1,,
SYNTUS:40551127,40551127,"Apeldoorn, Beeklustweg",52.192775,5.945981,0,stoparea:SYNTUS:50048,,0,,
SYNTUS:40551130,40551130,"Apeldoorn, Station",52.209578,5.971108,0,stoparea:SYNTUS:50061,,1,I,
SYNTUS:40551133,40551133,"Apeldoorn, Blekersweg",52.205621,5.945601,0,stoparea:SYNTUS:50053,,0,,
SYNTUS:40551134,40551134,"Apeldoorn, Blekersweg",52.205471,5.945058,0,stoparea:SYNTUS:50053,,1,,
SYNTUS:40551135,40551135,"Apeldoorn, Dianalaan",52.210543,5.981275,0,stoparea:SYNTUS:50080,,0,,
SYNTUS:40551136,40551136,"Apeldoorn, Dianalaan",52.210409,5.981083,0,stoparea:SYNTUS:50080,,1,,
SYNTUS:40551137,40551137,"Apeldoorn, Eburonenstraat",52.204187,5.939044,0,stoparea:SYNTUS:50084,,1,,
SYNTUS:40551139,40551139,"Apeldoorn, De Tol",52.214605,5.988455,0,stoparea:SYNTUS:50076,,1,,
SYNTUS:40551140,40551140,"Apeldoorn, De Tol",52.215048,5.98969,0,stoparea:SYNTUS:50076,,0,,
SYNTUS:40551141,40551141,"Apeldoorn, Georg Hegelstraat",52.224267,5.99564,0,stoparea:SYNTUS:50104,,1,,
SYNTUS:40551142,40551142,"Apeldoorn, Georg Hegelstraat",52.224016,5.995446,0,stoparea:SYNTUS:50104,,0,,
SYNTUS:40551146,40551146,"Apeldoorn, Burg. des Tombeplein",52.217072,5.953076,0,stoparea:SYNTUS:50059,,1,,
SYNTUS:40551147,40551147,"Apeldoorn, Burg. des Tombeplein",52.217081,5.95312,0,stoparea:SYNTUS:50059,,0,,
SYNTUS:40551154,40551154,"Apeldoorn, Leienplein",52.214315,5.96002,0,stoparea:SYNTUS:50159,,0,,
SYNTUS:40551155,40551155,"Apeldoorn, Leienplein",52.214315,5.96002,0,stoparea:SYNTUS:50159,,0,,
SYNTUS:40551156,40551156,"Apeldoorn, Oranjerie",52.212466,5.961518,0,stoparea:SYNTUS:50176,,1,,
SYNTUS:40551157,40551157,"Apeldoorn, Oranjerie",52.21288,5.961377,0,stoparea:SYNTUS:50176,,0,,
SYNTUS:40551158,40551158,"Apeldoorn, Politiebureau",52.215845,5.954128,0,stoparea:SYNTUS:50186,,1,,
SYNTUS:40551159,40551159,"Apeldoorn, Politiebureau",52.215601,5.95436,0,stoparea:SYNTUS:50186,,0,,
SYNTUS:40551162,40551162,"Apeldoorn, Staringlaan",52.214955,5.940933,0,stoparea:SYNTUS:50218,,1,,
SYNTUS:40551166,40551166,"Apeldoorn, Schuttersweg",52.214267,5.945651,0,stoparea:SYNTUS:50209,,1,,
SYNTUS:40551167,40551167,"Apeldoorn, Schuttersweg",52.213508,5.94472,0,stoparea:SYNTUS:50209,,0,,
SYNTUS:40551174,40551174,"Apeldoorn, Vlietweg",52.190219,5.950614,0,stoparea:SYNTUS:50151,,1,,
SYNTUS:40551176,40551176,"Apeldoorn, Laan v/d Mensenrechten",52.206099,5.958408,0,stoparea:SYNTUS:50148,,1,,
SYNTUS:40551177,40551177,"Apeldoorn, Imkersdreef",52.200206,5.990367,0,stoparea:SYNTUS:50128,,1,,
SYNTUS:40551178,40551178,"Apeldoorn, Imkersdreef",52.199659,5.990126,0,stoparea:SYNTUS:50128,,1,,
SYNTUS:40551179,40551179,"Apeldoorn, Hoenderparkweg",52.192089,5.95425,0,stoparea:SYNTUS:50119,,1,,
SYNTUS:40551180,40551180,"Apeldoorn, Hoenderparkweg",52.192665,5.955823,0,stoparea:SYNTUS:50119,,1,,
SYNTUS:40551185,40551185,"Apeldoorn, Het Schip",52.216121,6.015034,0,stoparea:SYNTUS:50117,,1,,
SYNTUS:40551187,40551187,"Apeldoorn, Het Firmament",52.220323,6.007279,0,stoparea:SYNTUS:50115,,1,,
SYNTUS:40551189,40551189,"Apeldoorn, Linie",52.218201,6.004015,0,stoparea:SYNTUS:50161,,1,,
SYNTUS:40551190,40551190,"Apeldoorn, Linie",52.217986,6.003924,0,stoparea:SYNTUS:50161,,1,,
SYNTUS:40551191,40551191,"Apeldoorn, Dennenkamp",52.218863,5.997702,0,stoparea:SYNTUS:50170,,1,,
SYNTUS:40551192,40551192,"Apeldoorn, Dennenkamp",52.219103,5.998335,0,stoparea:SYNTUS:50170,,1,,
SYNTUS:40551193,40551193,"Apeldoorn, Wildernislaan",52.223737,5.936915,0,stoparea:SYNTUS:50245,,1,,
SYNTUS:40551195,40551195,"Apeldoorn, Zonnewende",52.21953,6.014526,0,stoparea:SYNTUS:50255,,0,,
SYNTUS:40551197,40551197,"Apeldoorn, Top Naeffstraat",52.217708,5.995097,0,stoparea:SYNTUS:50226,,1,,
SYNTUS:40551198,40551198,"Apeldoorn, Top Naeffstraat",52.217689,5.99536,0,stoparea:SYNTUS:50226,,1,,
SYNTUS:40551200,40551200,"Apeldoorn, Ritbroekstraat",52.208285,5.95434,0,stoparea:SYNTUS:50200,,0,,
SYNTUS:40551201,40551201,"Apeldoorn, Ritbroekstraat",52.20802,5.953341,0,stoparea:SYNTUS:50200,,0,,
SYNTUS:40551204,40551204,"Apeldoorn, Pr. W. Alexanderlaan",52.207704,5.949899,0,stoparea:SYNTUS:50189,,1,,
SYNTUS:40551205,40551205,"Apeldoorn, Pr. W. Alexanderlaan",52.207695,5.949987,0,stoparea:SYNTUS:50189,,0,,
SYNTUS:40551212,40551212,"Apeldoorn, Schopenhauerstraat",52.224545,6.00261,0,stoparea:SYNTUS:50207,,0,,
SYNTUS:40551213,40551213,"Apeldoorn, Mandala/Kazerne",52.204573,5.929437,0,stoparea:SYNTUS:50163,,1,,
SYNTUS:40551218,40551218,"Apeldoorn, Christiaan Geurtsweg",52.204965,5.956843,0,stoparea:SYNTUS:50065,,1,,
SYNTUS:40551219,40551219,"Apeldoorn, Christiaan Geurtsweg",52.205252,5.95711,0,stoparea:SYNTUS:50065,,1,,
SYNTUS:40551222,40551222,"Apeldoorn, Asselsestraat",52.210072,5.949037,0,stoparea:SYNTUS:50042,,0,,
SYNTUS:40551223,40551223,"Apeldoorn, Asselsestraat",52.210225,5.949024,0,stoparea:SYNTUS:50042,,0,,
SYNTUS:40551224,40551224,"Apeldoorn, Driehuizerweg",52.209101,5.943435,0,stoparea:SYNTUS:50081,,1,,
SYNTUS:40551225,40551225,"Apeldoorn, Driehuizerweg",52.209211,5.942969,0,stoparea:SYNTUS:50081,,1,,
SYNTUS:40551226,40551226,"Apeldoorn, Jean Monnetpark",52.201915,5.950089,0,stoparea:SYNTUS:50131,,1,,
SYNTUS:40551227,40551227,"Apeldoorn, Jean Monnetpark",52.201336,5.948839,0,stoparea:SYNTUS:50131,,1,,
SYNTUS:40551229,40551229,"Apeldoorn, Laan van Spitsbergen",52.193733,5.937276,0,stoparea:SYNTUS:50150,,1,,
SYNTUS:40551234,40551234,"Apeldoorn, Schumanpark",52.195692,5.943049,0,stoparea:SYNTUS:50208,,1,,
SYNTUS:40551235,40551235,"Apeldoorn, Schumanpark",52.195116,5.941301,0,stoparea:SYNTUS:50208,,1,,
SYNTUS:40551238,40551238,"Apeldoorn, Winkelc. De Mheen",52.221582,5.991666,0,stoparea:SYNTUS:50247,,1,,
SYNTUS:40551239,40551239,"Apeldoorn, Winkelc. De Mheen",52.221662,5.991741,0,stoparea:SYNTUS:50247,,0,,
SYNTUS:40551240,40551240,"Apeldoorn, Kruizemuntstraat",52.219099,5.986701,0,stoparea:SYNTUS:50144,,0,,
SYNTUS:40551241,40551241,"Apeldoorn, Kruizemuntstraat",52.219162,5.986746,0,stoparea:SYNTUS:50144,,1,,
SYNTUS:40551244,40551244,"Apeldoorn, Beethovenlaan",52.190917,5.966052,0,stoparea:SYNTUS:50049,,1,,
SYNTUS:40551246,40551246,"Apeldoorn, Condorweg",52.206088,5.975393,0,stoparea:SYNTUS:50067,,1,,
SYNTUS:40551247,40551247,"Apeldoorn, Condorweg",52.206628,5.975122,0,stoparea:SYNTUS:50067,,0,,
SYNTUS:40551249,40551249,"Apeldoorn, Goeman Borgesiusstraat",52.202221,5.973981,0,stoparea:SYNTUS:50101,,1,,
SYNTUS:40551253,40551253,"Apeldoorn, Kooikersdreef",52.198056,5.990689,0,stoparea:SYNTUS:50142,,1,,
SYNTUS:40551257,40551257,"Apeldoorn, Maasstraat",52.190901,5.978307,0,stoparea:SYNTUS:50162,,1,,
SYNTUS:40551266,40551266,"Apeldoorn, Ravenweg",52.194612,5.965881,0,stoparea:SYNTUS:50195,,1,,
SYNTUS:40551267,40551267,"Apeldoorn, Salomonszegel",52.226778,5.984302,0,stoparea:SYNTUS:50203,,0,,
SYNTUS:40551268,40551268,"Apeldoorn, Salomonszegel",52.226761,5.984243,0,stoparea:SYNTUS:50203,,1,,
SYNTUS:40551270,40551270,"Apeldoorn, Schaperstraat",52.203471,5.977377,0,stoparea:SYNTUS:50205,,1,,
SYNTUS:40551271,40551271,"Apeldoorn, Sporthal Zuiderpark",52.196851,5.9747,0,stoparea:SYNTUS:50216,,0,,
SYNTUS:40551275,40551275,"Apeldoorn, Treubstraat",52.199943,5.974829,0,stoparea:SYNTUS:50227,,1,,
SYNTUS:40551276,40551276,"Apeldoorn, Vaartse Rijn",52.187695,5.974126,0,stoparea:SYNTUS:50232,,0,,
SYNTUS:40551277,40551277,"Apeldoorn, Vaartse Rijn",52.187659,5.974141,0,stoparea:SYNTUS:50232,,1,,
SYNTUS:40551281,40551281,"Apeldoorn, Vonderlaan",52.223379,5.940394,0,stoparea:SYNTUS:50237,,1,,
SYNTUS:40551284,40551284,"Apeldoorn, Zevenhuizenseweg",52.220639,5.975526,0,stoparea:SYNTUS:50250,,1,,
SYNTUS:40551285,40551285,"Apeldoorn, Zevenhuizenseweg",52.220767,5.975104,0,stoparea:SYNTUS:50250,,1,,
SYNTUS:40551286,40551286,"Apeldoorn, Zonnedauw",52.220387,5.979109,0,stoparea:SYNTUS:50253,,0,,
SYNTUS:40551287,40551287,"Apeldoorn, Zonnedauw",52.220629,5.979185,0,stoparea:SYNTUS:50253,,1,,
SYNTUS:40551288,40551288,"Apeldoorn, Wilhelminapark",52.222062,5.962154,0,stoparea:SYNTUS:50244,,1,,
SYNTUS:40551290,40551290,"Apeldoorn, Vlijtseweg",52.226504,5.970818,0,stoparea:SYNTUS:50236,,1,,
SYNTUS:40551291,40551291,"Apeldoorn, Vlijtseweg",52.22655,5.970731,0,stoparea:SYNTUS:50236,,0,,
SYNTUS:40551293,40551293,"Apeldoorn, Waltersingel",52.210871,5.933874,0,stoparea:SYNTUS:50240,,0,,
SYNTUS:40551298,40551298,"Apeldoorn, Ruimzichtlaan",52.200505,5.955352,0,stoparea:SYNTUS:50202,,1,,
SYNTUS:40551299,40551299,"Apeldoorn, Ruimzichtlaan",52.199966,5.955462,0,stoparea:SYNTUS:50202,,1,,
SYNTUS:40551302,40551302,"Apeldoorn, Prinsenweide",52.241771,5.969861,0,stoparea:SYNTUS:50188,,1,,
SYNTUS:40551303,40551303,"Apeldoorn, Prinsenweide",52.241815,5.969906,0,stoparea:SYNTUS:50188,,1,,
SYNTUS:40551309,40551309,"Apeldoorn, Lage Brink",52.244702,5.974951,0,stoparea:SYNTUS:50153,,0,,
SYNTUS:40551311,40551311,"Apeldoorn, Lage Kamp",52.236171,5.969847,0,stoparea:SYNTUS:50154,,1,,
SYNTUS:40551312,40551312,"Apeldoorn, Lage Kamp",52.236109,5.969758,0,stoparea:SYNTUS:50154,,1,,
SYNTUS:40551315,40551315,"Apeldoorn, Kathage",52.243809,5.970152,0,stoparea:SYNTUS:50138,,0,,
SYNTUS:40551317,40551317,"Apeldoorn, Johan Steenbergenstraat",52.221751,5.970595,0,stoparea:SYNTUS:50133,,0,. ,
SYNTUS:40551318,40551318,"Apeldoorn, Johan Steenbergenstraat",52.222254,5.970587,0,stoparea:SYNTUS:50133,,1,. ,
SYNTUS:40551320,40551320,"Apeldoorn, Jachtlaan",52.215757,5.932705,0,stoparea:SYNTUS:50129,,1,,
SYNTUS:40551321,40551321,"Apeldoorn, Hogekampweg",52.239461,5.969846,0,stoparea:SYNTUS:50121,,1,,
SYNTUS:40551322,40551322,"Apeldoorn, Hogekampweg",52.238859,5.969794,0,stoparea:SYNTUS:50121,,1,,
SYNTUS:40551323,40551323,"Apeldoorn, Hezeweg",52.202696,5.953976,0,stoparea:SYNTUS:50118,,1,,
SYNTUS:40551324,40551324,"Apeldoorn, Hezeweg",52.202677,5.954166,0,stoparea:SYNTUS:50118,,0,,
SYNTUS:40551325,40551325,"Apeldoorn, Hattemseweg",52.197706,5.948691,0,stoparea:SYNTUS:50111,,0,,
SYNTUS:40551326,40551326,"Apeldoorn, Hattemseweg",52.197948,5.94884,0,stoparea:SYNTUS:50111,,1,,
SYNTUS:40551330,40551330,"Apeldoorn, Erasmusstraat",52.229493,5.96812,0,stoparea:SYNTUS:50093,,0,,
SYNTUS:40551331,40551331,"Apeldoorn, Erasmusstraat",52.229932,5.968316,0,stoparea:SYNTUS:50093,,0,,
SYNTUS:40551334,40551334,"Apeldoorn, Elleboogweg",52.19941,5.953129,0,stoparea:SYNTUS:50091,,0,,
SYNTUS:40551335,40551335,"Apeldoorn, Elleboogweg",52.199262,5.952235,0,stoparea:SYNTUS:50091,,1,,
SYNTUS:40551336,40551336,"Apeldoorn, Einsteinlaan",52.227282,5.96793,0,stoparea:SYNTUS:50089,,1,,
SYNTUS:40551337,40551337,"Apeldoorn, Einsteinlaan",52.228073,5.968087,0,stoparea:SYNTUS:50089,,1,,
SYNTUS:40551340,40551340,"Apeldoorn, Curiestraat",52.232975,5.967375,0,stoparea:SYNTUS:50069,,1,,
SYNTUS:40551341,40551341,"Apeldoorn, Curiestraat",52.232596,5.967575,0,stoparea:SYNTUS:50069,,1,,
SYNTUS:40551345,40551345,"Apeldoorn, 2e Beukenlaan",52.222638,5.933565,0,stoparea:SYNTUS:50034,,0,,
SYNTUS:40551354,40551354,"Apeldoorn, Kraaienweg",52.198263,5.965489,0,stoparea:SYNTUS:50143,,1,,
SYNTUS:40551362,40551362,"Apeldoorn, Auroralaan",52.212741,5.985708,0,stoparea:SYNTUS:50043,,1,,
SYNTUS:40551370,40551370,"Apeldoorn, Kinderboerderij Laag Buurlo",52.222626,6.001779,0,stoparea:SYNTUS:50139,,1,,
SYNTUS:40551373,40551373,"Apeldoorn, Station",52.209589,5.970728,0,stoparea:SYNTUS:50061,,1,F,
SYNTUS:40551377,40551377,"Apeldoorn, Schaperstraat",52.203947,5.975774,0,stoparea:SYNTUS:50205,,1,,
SYNTUS:40551385,40551385,"Apeldoorn, Dubbelbeek",52.184879,5.965608,0,stoparea:SYNTUS:50083,,1,,
SYNTUS:40551388,40551388,"Apeldoorn, Ordenplein",52.20134,5.930905,0,stoparea:SYNTUS:50179,,0,,
SYNTUS:40551390,40551390,"Apeldoorn, Mandala/Kazerne",52.204438,5.929567,0,stoparea:SYNTUS:50163,,1,,
SYNTUS:40551422,40551422,"Apeldoorn, Tangostraat",52.232887,5.992069,0,stoparea:SYNTUS:50223,,1,,
SYNTUS:40551423,40551423,"Apeldoorn, Tangostraat",52.232825,5.991804,0,stoparea:SYNTUS:50223,,1,,
SYNTUS:40551424,40551424,"Apeldoorn, Citroenvlinder",52.236515,5.996041,0,stoparea:SYNTUS:50066,,1,,
SYNTUS:40551425,40551425,"Apeldoorn, Citroenvlinder",52.235783,5.995109,0,stoparea:SYNTUS:50066,,1,,
SYNTUS:40551427,40551427,"Apeldoorn, Laan van Zuidbroek",52.239327,5.999784,0,stoparea:SYNTUS:50152,,0,,
SYNTUS:40551429,40551429,"Apeldoorn, Zuidbroek",52.242098,5.997523,0,stoparea:SYNTUS:50256,,0,,
SYNTUS:40551430,40551430,"Apeldoorn, De Spinozastraat",52.226801,5.999129,0,stoparea:SYNTUS:50215,,0,,
SYNTUS:40551447,40551447,"Apeldoorn, Station De Maten",52.205527,6.000826,0,stoparea:SYNTUS:50217,,0,,
SYNTUS:40551451,40551451,"Apeldoorn, Beatrixlaan",52.206601,5.949344,0,stoparea:SYNTUS:50047,,0,,
SYNTUS:40551452,40551452,"Apeldoorn, Beatrixlaan",52.206573,5.94949,0,stoparea:SYNTUS:50047,,1,,
SYNTUS:40551455,40551455,"Apeldoorn, Lekstraat",52.188715,5.978732,0,stoparea:SYNTUS:50160,,1,,
SYNTUS:40551456,40551456,"Apeldoorn, Lekstraat",52.18883,5.979143,0,stoparea:SYNTUS:50160,,1,,
SYNTUS:40551469,40551469,"Apeldoorn, Bartelsweg",52.216057,5.949332,0,stoparea:SYNTUS:50045,,1,,
SYNTUS:40551470,40551470,"Apeldoorn, Bartelsweg",52.216019,5.949595,0,stoparea:SYNTUS:50045,,0,,
SYNTUS:40551473,40551473,"Apeldoorn, Aidastraat",52.228629,5.984429,0,stoparea:SYNTUS:50036,,1,,
SYNTUS:40551474,40551474,"Apeldoorn, Aidastraat",52.228141,5.984993,0,stoparea:SYNTUS:50036,,1,,
SYNTUS:40551476,40551476,"Apeldoorn, De Veenkamp",52.229235,5.958295,0,stoparea:SYNTUS:50078,,0,,
SYNTUS:40551477,40551477,"Apeldoorn, Bas Backerlaan",52.225109,5.956588,0,stoparea:SYNTUS:50046,,0,,
SYNTUS:40551498,40551498,"Apeldoorn, Kanaalstraat",52.212906,5.967099,0,stoparea:SYNTUS:50136,,0,,
SYNTUS:40551503,40551503,"Apeldoorn, De Bovenkruier",52.233441,5.987304,0,stoparea:SYNTUS:51173,,1,,
SYNTUS:40551504,40551504,"Apeldoorn, De Bovenkruier",52.233423,5.987421,0,stoparea:SYNTUS:51173,,1,,
SYNTUS:40551509,40551509,"Apeldoorn, Hoenderloseweg",52.181994,5.925668,0,stoparea:SYNTUS:51185,,0,,
SYNTUS:40551994,40551994,"Apeldoorn, Arendsburght",52.220478,5.924304,0,stoparea:SYNTUS:50040,,1,,
SYNTUS:40559994,40559994,"Apeldoorn, Laan van Zuidbroek",52.238661,5.999907,0,stoparea:SYNTUS:50152,,0,,
SYNTUS:40563003,40563003,"Stroe, Heetweg",52.158028,5.716622,0,stoparea:SYNTUS:50956,,1,,
SYNTUS:40563005,40563005,"Stroe, Topperweg",52.165691,5.704942,0,stoparea:SYNTUS:50961,,1,,
SYNTUS:40563006,40563006,"Stroe, Topperweg",52.166042,5.704696,0,stoparea:SYNTUS:50961,,1,,
SYNTUS:40563007,40563007,"Stroe, Kootwijkerdijk",52.168269,5.702227,0,stoparea:SYNTUS:50958,,0,,
SYNTUS:40563008,40563008,"Stroe, Kootwijkerdijk",52.168413,5.702257,0,stoparea:SYNTUS:50958,,0,,
SYNTUS:40563009,40563009,"Stroe, Ravenweg",52.175786,5.694459,0,stoparea:SYNTUS:50960,,1,,
SYNTUS:40563010,40563010,"Stroe, Ravenweg",52.175848,5.694459,0,stoparea:SYNTUS:50960,,1,,
SYNTUS:40563011,40563011,"Stroe, Centrum",52.186082,5.692322,0,stoparea:SYNTUS:50954,,1,,
SYNTUS:40563012,40563012,"Stroe, Centrum",52.186208,5.692396,0,stoparea:SYNTUS:50954,,0,,
SYNTUS:40563013,40563013,"Stroe, De Drie Musketiers",52.188966,5.692692,0,stoparea:SYNTUS:50955,,0,,
SYNTUS:40563014,40563014,"Stroe, De Drie Musketiers",52.189307,5.693133,0,stoparea:SYNTUS:50955,,0,,
SYNTUS:40563015,40563015,"Stroe, Majoor Mulder Kazerne",52.198191,5.702014,0,stoparea:SYNTUS:50959,,0,,
SYNTUS:40563016,40563016,"Stroe, Majoor Mulder Kazerne",52.198925,5.702868,0,stoparea:SYNTUS:50959,,0,,
SYNTUS:40563017,40563017,"Stroe, Ravenweg",52.175949,5.693787,0,stoparea:SYNTUS:50960,,1,,
SYNTUS:40569008,40569008,"Wittenberg, Militair tehuis",52.205585,5.706338,0,stoparea:SYNTUS:51136,,0,,
SYNTUS:40612043,40612043,"Ede, Tolhuislaan",52.034501,5.669749,0,stoparea:SYNTUS:50512,,1,,
SYNTUS:40612044,40612044,"Ede, Tolhuislaan",52.035769,5.66948,0,stoparea:SYNTUS:50512,,1,,
SYNTUS:40612045,40612045,"Ede, Ericalaan",52.037425,5.668893,0,stoparea:SYNTUS:50463,,1,,
SYNTUS:40612046,40612046,"Ede, Ericalaan",52.039169,5.668393,0,stoparea:SYNTUS:50463,,1,,
SYNTUS:40612047,40612047,"Ede, Maanderweg",52.041095,5.667487,0,stoparea:SYNTUS:51207,,0,,
