stop_id,stop_code,stop_name,stop_lat,stop_lon,location_type,parent_station,stop_timezone,wheelchair_boarding,platform_code,zone_id
HTM:1001,1001,"Den Haag, Adriaan Goekooplaan",52.093321,4.28961,0,stoparea:HTM:1001,,0,,
HTM:1002,1002,"Den Haag, Adriaan Goekooplaan",52.093242,4.289758,0,stoparea:HTM:1001,,1,,
HTM:103,103,"Den Haag, Oude Waalsdorperweg",52.109249,4.326883,0,stoparea:HTM:101,,0,,
HTM:1101,1101,"Den Haag, Houtrust",52.085542,4.273794,0,stoparea:HTM:1101,,,,
HTM:1102,1102,"Den Haag, Houtrust",52.085792,4.273671,0,stoparea:HTM:1101,,1,,
HTM:1103,1103,"Den Haag, Cornelis de Wittlaan",52.087281,4.278056,0,stoparea:HTM:1103,,1,,
HTM:1104,1104,"Den Haag, Gemeentemuseum/Museon",52.088707,4.279698,0,stoparea:HTM:1518,,1,,
HTM:1105,1105,"Den Haag, Gemeentemuseum/Museon",52.088976,4.279604,0,stoparea:HTM:1518,,1,,
HTM:1106,1106,"Den Haag, Gemeentemuseum/Museon",52.088372,4.279415,0,stoparea:HTM:1106,,1,,
HTM:1107,1107,"Den Haag, Gemeentemuseum/Museon",52.088397,4.280158,0,stoparea:HTM:1106,,1,,
HTM:1108,1108,"Den Haag, Groot Hertoginnelaan",52.082587,4.276946,0,stoparea:HTM:1108,,,,
HTM:1109,1109,"Den Haag, Groot Hertoginnelaan",52.082394,4.277491,0,stoparea:HTM:1108,,1,,
HTM:1110,1110,"Den Haag, Conradkade",52.082216,4.276737,0,stoparea:HTM:1110,,0,,
HTM:1111,1111,"Den Haag, Conradkade",52.082085,4.277076,0,stoparea:HTM:1110,,0,,
HTM:1112,1112,"Den Haag, Valeriusstraat",52.083722,4.279121,0,stoparea:HTM:1112,,1,,
HTM:1113,1113,"Den Haag, Valeriusstraat",52.084293,4.279589,0,stoparea:HTM:1112,,1,,
HTM:1114,1114,"Den Haag, Groot Hertoginnelaan",52.085644,4.282751,0,stoparea:HTM:1114,,0,,
HTM:1115,1115,"Den Haag, Groot Hertoginnelaan",52.085114,4.282778,0,stoparea:HTM:1114,,0,,
HTM:1116,1116,"Den Haag, Groot Hertoginnelaan",52.08488,4.283703,0,stoparea:HTM:1114,,0,,
HTM:1117,1117,"Den Haag, Banstraat",52.085198,4.287022,0,stoparea:HTM:1117,,1,,
HTM:1118,1118,"Den Haag, Banstraat",52.085303,4.287647,0,stoparea:HTM:1117,,1,,
HTM:1119,1119,"Den Haag, Conradkade",52.0805,4.282542,0,stoparea:HTM:1119,,1,,
HTM:1120,1120,"Den Haag, Conradkade",52.080614,4.28321,0,stoparea:HTM:1119,,1,,
HTM:1121,1121,"Den Haag, Van Speijkstraat",52.08122,4.288389,0,stoparea:HTM:1121,,1,,
HTM:1122,1122,"Den Haag, Van Speijkstraat",52.081505,4.288061,0,stoparea:HTM:1121,,1,,
HTM:1123,1123,"Den Haag, Laan van Meerdervoort",52.085066,4.292118,0,stoparea:HTM:1123,,1,,
HTM:1124,1124,"Den Haag, Laan van Meerdervoort",52.084885,4.291991,0,stoparea:HTM:1123,,1,,
HTM:1125,1125,"Den Haag, Cornelis de Wittlaan",52.087576,4.277961,0,stoparea:HTM:1103,,1,,
HTM:1128,1128,"Den Haag, Conradkade",52.08046,4.282105,0,stoparea:HTM:1128,,0,,
HTM:1129,1129,"Den Haag, Conradkade",52.080467,4.282835,0,stoparea:HTM:1128,,0,,
HTM:1201,1201,"Den Haag, Kwartellaan",52.078051,4.254651,0,stoparea:HTM:1201,,1,,
HTM:1202,1202,"Den Haag, Kwartellaan",52.078228,4.255245,0,stoparea:HTM:1201,,1,,
HTM:1203,1203,"Den Haag, Nieboerweg",52.080465,4.260747,0,stoparea:HTM:1203,,1,,
HTM:1204,1204,"Den Haag, Nieboerweg",52.080159,4.259791,0,stoparea:HTM:1203,,1,,
HTM:1205,1205,"Den Haag, Sportlaan",52.080432,4.260105,0,stoparea:HTM:1205,,0,,
HTM:1206,1206,"Den Haag, Sportlaan",52.0802,4.260374,0,stoparea:HTM:1205,,0,,
HTM:1207,1207,"Den Haag, Haga Ziekenhuis",52.082351,4.265266,0,stoparea:HTM:1207,,1,,
HTM:1208,1208,"Den Haag, Haga Ziekenhuis",52.082055,4.264412,0,stoparea:HTM:1207,,1,,
HTM:1209,1209,"Den Haag, Houtrustweg",52.085159,4.27322,0,stoparea:HTM:1209,,1,,
HTM:1210,1210,"Den Haag, Houtrustweg",52.085111,4.27201,0,stoparea:HTM:1209,,1,,
HTM:1211,1211,"Den Haag, Goudenregenplein",52.07662,4.263863,0,stoparea:HTM:1211,,1,,
HTM:1212,1212,"Den Haag, Goudenregenplein",52.076496,4.264027,0,stoparea:HTM:1211,,0,,
HTM:1213,1213,"Den Haag, Zonnebloemstraat",52.071458,4.25702,0,stoparea:HTM:1213,,1,,
HTM:1214,1214,"Den Haag, Zonnebloemstraat",52.070969,4.255647,0,stoparea:HTM:1213,,1,,
HTM:1217,1217,"Den Haag, Azaleaplein",52.073136,4.261427,0,stoparea:HTM:1217,,1,,
HTM:1218,1218,"Den Haag, Azaleaplein",52.073257,4.261862,0,stoparea:HTM:1217,,1,,
HTM:12864,12864,"Den Haag, Buitenhof",52.078703,4.311779,0,stoparea:HTM:2864,,,,
HTM:1301,1301,"Den Haag, Doctor van Welylaan",52.08508,4.257449,0,stoparea:HTM:1301,,0,,
HTM:1302,1302,"Den Haag, Doctor van Welylaan",52.084387,4.258284,0,stoparea:HTM:1301,,0,,
HTM:1303,1303,"Den Haag, Kruisbeklaan",52.072945,4.242454,0,stoparea:HTM:1303,,1,,
HTM:1304,1304,"Den Haag, Kruisbeklaan",52.07332,4.243116,0,stoparea:HTM:1303,,1,,
HTM:1305,1305,"Den Haag, Oude Buizerdlaan",52.074187,4.245471,0,stoparea:HTM:1305,,1,,
HTM:1306,1306,"Den Haag, Oude Buizerdlaan",52.0746,4.246292,0,stoparea:HTM:1305,,1,,
HTM:1307,1307,"Den Haag, Vliegenvangerlaan",52.075909,4.249658,0,stoparea:HTM:1307,,1,,
HTM:1308,1308,"Den Haag, Vliegenvangerlaan",52.076045,4.249815,0,stoparea:HTM:1307,,1,,
HTM:1403,1403,"Den Haag, Muurbloemweg",52.068152,4.232207,0,stoparea:HTM:1403,,1,,
HTM:1404,1404,"Den Haag, Muurbloemweg",52.068367,4.232099,0,stoparea:HTM:1403,,1,,
HTM:1405,1405,"Den Haag, Arabislaan",52.06961,4.236005,0,stoparea:HTM:1405,,1,,
HTM:1406,1406,"Den Haag, Arabislaan",52.069814,4.236627,0,stoparea:HTM:1405,,1,,
HTM:1407,1407,"Den Haag, De Savornin Lohmanlaan",52.071147,4.2397,0,stoparea:HTM:1407,,1,,
HTM:1408,1408,"Den Haag, De Savornin Lohmanlaan",52.071599,4.240928,0,stoparea:HTM:1407,,0,,
HTM:1411,1411,"Den Haag, Aronskelkweg",52.066639,4.235586,0,stoparea:HTM:1411,,1,,
HTM:1412,1412,"Den Haag, Aronskelkweg",52.067053,4.23556,0,stoparea:HTM:1411,,1,,
HTM:1415,1415,"Den Haag, Muurbloemweg",52.063896,4.234446,0,stoparea:HTM:1415,,1,,
HTM:1416,1416,"Den Haag, Muurbloemweg",52.063918,4.234912,0,stoparea:HTM:1415,,1,,
HTM:1417,1417,"Den Haag, Lobelialaan",52.064883,4.237104,0,stoparea:HTM:1417,,1,,
HTM:1418,1418,"Den Haag, Lobelialaan",52.065093,4.237405,0,stoparea:HTM:1417,,1,,
HTM:1419,1419,"Den Haag, De Savornin Lohmanplein",52.067317,4.246113,0,stoparea:HTM:1419,,1,,
HTM:1420,1420,"Den Haag, De Savornin Lohmanplein",52.06714,4.245476,0,stoparea:HTM:1419,,1,,
HTM:1421,1421,"Den Haag, Hoefbladlaan",52.065726,4.240553,0,stoparea:HTM:1421,,0,,
HTM:1422,1422,"Den Haag, Hoefbladlaan",52.065325,4.239966,0,stoparea:HTM:1421,,1,,
HTM:1423,1423,"Den Haag, Hoefbladlaan",52.065347,4.23944,0,stoparea:HTM:1421,,1,,
HTM:1424,1424,"Den Haag, Hoefbladlaan",52.065378,4.239891,0,stoparea:HTM:1421,,1,,
HTM:1425,1425,"Den Haag, Teunisbloemplein",52.06309,4.226504,0,stoparea:HTM:1425,,1,,
HTM:1426,1426,"Den Haag, Teunisbloemplein",52.063256,4.226062,0,stoparea:HTM:1425,,1,,
HTM:1427,1427,"Den Haag, De Savornin Lohmanplein",52.068107,4.247887,0,stoparea:HTM:1427,,0,,
HTM:1428,1428,"Den Haag, De Savornin Lohmanplein",52.067852,4.245706,0,stoparea:HTM:1419,,1,,
HTM:1429,1429,"Den Haag, De Savornin Lohmanplein",52.067225,4.244001,0,stoparea:HTM:1419,,1,,
HTM:1502,1502,"Den Haag, Kijkduin",52.066459,4.218161,0,stoparea:HTM:1502,,0,,
HTM:1504,1504,"Den Haag, Kijkduin Strand",52.068927,4.221452,0,stoparea:HTM:1504,,1,,
HTM:1506,1506,"Den Haag, Kijkduin Strand",52.068835,4.22125,0,stoparea:HTM:1504,,1,,
HTM:1508,1508,"Den Haag, Kijkduinsestraat",52.06671,4.22361,0,stoparea:HTM:1508,,1,,
HTM:1514,1514,"Den Haag, Kijkduinsestraat",52.066272,4.224744,0,stoparea:HTM:1508,,1,,
HTM:1516,1516,"Den Haag, Kijkduinsestraat",52.065592,4.224178,0,stoparea:HTM:1516,,1,,
HTM:1601,1601,"Den Haag, Kraayensteinlaan",52.048834,4.235767,0,stoparea:HTM:1601,,1,,
HTM:1602,1602,"Den Haag, Kraayensteinlaan",52.049022,4.236593,0,stoparea:HTM:1601,,0,,
HTM:1671,1671,"Den Haag, Kraayensteinlaan",52.048856,4.238026,0,stoparea:HTM:1671,,0,,
HTM:1677,1677,"Den Haag, Forellendaal",52.045518,4.240459,0,stoparea:HTM:1677,,0,,
HTM:1701,1701,"Den Haag, Gemaal",52.054229,4.268522,0,stoparea:HTM:1701,,,,
HTM:1707,1707,"Den Haag, Loosduinse Hoofdstraat",52.053882,4.239034,0,stoparea:HTM:1707,,0,,
HTM:1708,1708,"Den Haag, Loosduinse Hoofdstraat",52.054027,4.239205,0,stoparea:HTM:1707,,0,,
HTM:1709,1709,"Den Haag, Burgemeester Hovylaan",52.055263,4.241507,0,stoparea:HTM:1709,,1,,
HTM:1710,1710,"Den Haag, Burgemeester Hovylaan",52.055356,4.241825,0,stoparea:HTM:1709,,1,,
HTM:1711,1711,"Den Haag, Kapelaan Meereboerweg",52.050459,4.23832,0,stoparea:HTM:1711,,1,,
HTM:1712,1712,"Den Haag, Kapelaan Meereboerweg",52.050711,4.238357,0,stoparea:HTM:1711,,1,,
HTM:1715,1715,"Den Haag, Houtwijklaan",52.055713,4.25176,0,stoparea:HTM:1715,,1,,
HTM:1716,1716,"Den Haag, Houtwijklaan",52.056368,4.250738,0,stoparea:HTM:1715,,1,,
HTM:1717,1717,"Den Haag, Dedemsvaartweg",52.055141,4.258584,0,stoparea:HTM:1717,,0,,
HTM:1718,1718,"Den Haag, Dedemsvaartweg",52.054464,4.257377,0,stoparea:HTM:1717,,0,,
HTM:1719,1719,"Den Haag, Albert Schweitzerlaan",52.056983,4.261352,0,stoparea:HTM:1719,,1,,
HTM:1721,1721,"Den Haag, Albert Schweitzerlaan",52.057398,4.262435,0,stoparea:HTM:1719,,1,,
HTM:1772,1772,"Den Haag, Zichtenburglaan",52.048914,4.249571,0,stoparea:HTM:1772,,1,,
HTM:1801,1801,"Den Haag, Heliotrooplaan",52.062682,4.230758,0,stoparea:HTM:1801,,1,,
HTM:1802,1802,"Den Haag, Heliotrooplaan",52.062723,4.231297,0,stoparea:HTM:1801,,1,,
HTM:1805,1805,"Den Haag, Pisuissestraat",52.057135,4.227956,0,stoparea:HTM:1805,,1,,
HTM:1806,1806,"Den Haag, Pisuissestraat",52.057413,4.22792,0,stoparea:HTM:1805,,1,,
HTM:1808,1808,"Den Haag, Groen van Prinstererlaan",52.061315,4.247345,0,stoparea:HTM:1808,,1,,
HTM:1809,1809,"Den Haag, Groen van Prinstererlaan",52.061295,4.24704,0,stoparea:HTM:1808,,1,,
HTM:1810,1810,"Den Haag, Buitentuinen",52.056535,4.245674,0,stoparea:HTM:1810,,1,,
HTM:1811,1811,"Den Haag, Buitentuinen",52.056834,4.246789,0,stoparea:HTM:1810,,1,,
HTM:1812,1812,"Den Haag, Mozartlaan",52.05879,4.232652,0,stoparea:HTM:1812,,1,,
HTM:1813,1813,"Den Haag, Mozartlaan",52.060732,4.231698,0,stoparea:HTM:1812,,1,,
HTM:1818,1818,"Den Haag, Arnold Spoelplein",52.05464,4.232891,0,stoparea:HTM:1817,,1,,
HTM:1820,1820,"Den Haag, Arnold Spoelplein",52.054418,4.234121,0,stoparea:HTM:1820,,1,,
HTM:1821,1821,"Den Haag, Arnold Spoelplein",52.05429,4.23392,0,stoparea:HTM:1820,,1,,
HTM:1822,1822,"Den Haag, Louis Armstrongplein",52.055118,4.23858,0,stoparea:HTM:1822,,1,,
HTM:1823,1823,"Den Haag, Louis Armstrongplein",52.055143,4.238404,0,stoparea:HTM:1822,,1,,
HTM:1824,1824,"Den Haag, Buitentuinen",52.056607,4.245672,0,stoparea:HTM:1824,,1,,
HTM:1825,1825,"Den Haag, Buitentuinen",52.056566,4.246096,0,stoparea:HTM:1824,,1,,
HTM:1828,1828,"Den Haag, Binnentuinen",52.059371,4.247964,0,stoparea:HTM:1828,,1,,
HTM:1829,1829,"Den Haag, Binnentuinen",52.059405,4.247802,0,stoparea:HTM:1828,,1,,
HTM:1834,1834,"Den Haag, Pisuissestraat",52.057495,4.227976,0,stoparea:HTM:1834,,1,,
HTM:1835,1835,"Den Haag, Pisuissestraat",52.057161,4.227868,0,stoparea:HTM:1834,,1,,
HTM:1872,1872,"Den Haag, Westduin",52.058308,4.226584,0,stoparea:HTM:1872,,1,,
HTM:1873,1873,"Den Haag, Westduin",52.058555,4.226082,0,stoparea:HTM:1872,,1,,
HTM:1903,1903,"Den Haag, Appelstraat",52.06943,4.251748,0,stoparea:HTM:1903,,1,,
HTM:1904,1904,"Den Haag, Appelstraat",52.0693,4.251299,0,stoparea:HTM:1903,,1,,
HTM:1907,1907,"Den Haag, Colijnplein",52.066839,4.247832,0,stoparea:HTM:1907,,1,,
HTM:1908,1908,"Den Haag, Colijnplein",52.066294,4.248108,0,stoparea:HTM:1907,,1,,
HTM:1911,1911,"Den Haag, Appelstraat",52.065069,4.251552,0,stoparea:HTM:1911,,1,,
HTM:1912,1912,"Den Haag, Appelstraat",52.064159,4.25423,0,stoparea:HTM:1911,,1,,
HTM:1913,1913,"Den Haag, Thorbeckelaan",52.064142,4.252407,0,stoparea:HTM:1913,,1,,
HTM:1914,1914,"Den Haag, Thorbeckelaan",52.064969,4.253349,0,stoparea:HTM:1913,,1,,
HTM:1915,1915,"Den Haag, Perenstraat",52.067155,4.258252,0,stoparea:HTM:1915,,1,,
HTM:1916,1916,"Den Haag, Perenstraat",52.067458,4.258915,0,stoparea:HTM:1915,,1,,
HTM:1917,1917,"Den Haag, Laan van Eik en Duinen",52.06889,4.262905,0,stoparea:HTM:1917,,1,,
HTM:1918,1918,"Den Haag, Laan van Eik en Duinen",52.069111,4.263512,0,stoparea:HTM:1917,,1,,
HTM:1919,1919,"Den Haag, Walnootstraat",52.060078,4.254173,0,stoparea:HTM:1919,,1,,
HTM:1920,1920,"Den Haag, Walnootstraat",52.060638,4.255354,0,stoparea:HTM:1919,,1,,
HTM:1921,1921,"Den Haag, Thorbeckelaan",52.062858,4.260038,0,stoparea:HTM:1921,,1,,
HTM:1922,1922,"Den Haag, Thorbeckelaan",52.062969,4.260399,0,stoparea:HTM:1921,,1,,
HTM:1923,1923,"Den Haag, Okkernootstraat",52.063557,4.257045,0,stoparea:HTM:1923,,1,,
HTM:1924,1924,"Den Haag, Okkernootstraat",52.063665,4.257917,0,stoparea:HTM:1923,,1,,
HTM:2002,2002,"Den Haag, Goudenregenstraat",52.074448,4.265114,0,stoparea:HTM:2002,,0,,
HTM:2003,2003,"Den Haag, Goudenregenstraat",52.074985,4.26672,0,stoparea:HTM:2003,,1,,
HTM:2004,2004,"Den Haag, Goudenregenstraat",52.075253,4.267574,0,stoparea:HTM:2003,,1,,
HTM:2005,2005,"Den Haag, Fahrenheitstraat",52.076491,4.271102,0,stoparea:HTM:2005,,1,,
HTM:2006,2006,"Den Haag, Fahrenheitstraat",52.076414,4.270564,0,stoparea:HTM:2005,,1,,
HTM:2007,2007,"Den Haag, Fahrenheitstraat",52.076517,4.271962,0,stoparea:HTM:2007,,0,,
HTM:2008,2008,"Den Haag, Fahrenheitstraat",52.076413,4.272373,0,stoparea:HTM:2007,,0,,
HTM:201,201,"Den Haag, Kurhaus",52.112686,4.283221,0,stoparea:HTM:201,,0,,
HTM:2010,2010,"Den Haag, Valkenbosplein",52.078382,4.276146,0,stoparea:HTM:2010,,1,,
HTM:2011,2011,"Den Haag, Valkenbosplein",52.078485,4.276567,0,stoparea:HTM:2010,,1,,
HTM:2012,2012,"Den Haag, Valkenbosplein",52.079037,4.277049,0,stoparea:HTM:2012,,1,,
HTM:2013,2013,"Den Haag, Valkenbosplein",52.07798,4.27639,0,stoparea:HTM:2012,,1,,
HTM:2015,2015,"Den Haag, Copernicusplein",52.076007,4.27498,0,stoparea:HTM:2015,,0,,
HTM:2016,2016,"Den Haag, Copernicusplein",52.076012,4.27552,0,stoparea:HTM:2015,,0,,
HTM:2017,2017,"Den Haag, Copernicusplein",52.075666,4.27512,0,stoparea:HTM:2017,,1,,
HTM:2018,2018,"Den Haag, Copernicusplein",52.076309,4.275541,0,stoparea:HTM:2017,,1,,
HTM:2019,2019,"Den Haag, Kamperfoeliestraat",52.070679,4.269555,0,stoparea:HTM:2019,,1,,
HTM:202,202,"Den Haag, Kurhaus",52.113077,4.28362,0,stoparea:HTM:201,,1,,
HTM:2020,2020,"Den Haag, Kamperfoeliestraat",52.070645,4.269731,0,stoparea:HTM:2019,,1,,
HTM:2021,2021,"Den Haag, Weimarstraat",52.072675,4.275296,0,stoparea:HTM:2021,,1,,
HTM:2022,2022,"Den Haag, Weimarstraat",52.072929,4.275538,0,stoparea:HTM:2021,,1,,
HTM:204,204,"Den Haag, Kurhaus",52.113581,4.283739,0,stoparea:HTM:201,,1,,
HTM:205,205,"Den Haag, Kurhausweg",52.112026,4.283749,0,stoparea:HTM:205,,1,,
HTM:206,206,"Den Haag, Kurhaus",52.112267,4.282575,0,stoparea:HTM:206,,1,,
HTM:207,207,"Den Haag, Zwarte Pad",52.115844,4.289232,0,stoparea:HTM:207,,1,,
HTM:209,209,"Den Haag, Zwarte Pad",52.116684,4.288773,0,stoparea:HTM:208,,1,,
HTM:2101,2101,"Den Haag, Laan van Meerdervoort",52.080524,4.284161,0,stoparea:HTM:2101,,1,,
HTM:2102,2102,"Den Haag, Laan van Meerdervoort",52.080867,4.283321,0,stoparea:HTM:2101,,,,
HTM:2103,2103,"Den Haag, Weimarstraat",52.075685,4.279919,0,stoparea:HTM:2103,,0,,
HTM:2104,2104,"Den Haag, Weimarstraat",52.075443,4.28007,0,stoparea:HTM:2103,,0,,
HTM:2105,2105,"Den Haag, Weimarstraat",52.078803,4.286509,0,stoparea:HTM:2105,,,,
HTM:2106,2106,"Den Haag, Weimarstraat",52.07867,4.286774,0,stoparea:HTM:2105,,1,,
HTM:2107,2107,"Den Haag, Cartesiusstraat",52.073955,4.281376,0,stoparea:HTM:2107,,0,,
HTM:2108,2108,"Den Haag, Cartesiusstraat",52.073464,4.281753,0,stoparea:HTM:2107,,0,,
HTM:212,212,"Den Haag, Zwarte Pad",52.116761,4.289282,0,stoparea:HTM:207,,1,,
HTM:214,214,"Den Haag, Zwarte Pad",52.116843,4.289382,0,stoparea:HTM:207,,1,,
HTM:217,217,"Den Haag, Harstenhoekplein",52.112148,4.287162,0,stoparea:HTM:217,,1,,
HTM:218,218,"Den Haag, Harstenhoekplein",52.11215,4.287395,0,stoparea:HTM:217,,1,,
HTM:219,219,"Den Haag, Stevinstraat",52.109992,4.287317,0,stoparea:HTM:219,,1,,
HTM:220,220,"Den Haag, Stevinstraat",52.109747,4.288068,0,stoparea:HTM:219,,1,,
HTM:2201,2201,"Den Haag, Waldeck Pyrmontkade",52.082066,4.288485,0,stoparea:HTM:2201,,0,,
HTM:2202,2202,"Den Haag, Waldeck Pyrmontkade",52.0819,4.288052,0,stoparea:HTM:2201,,0,,
HTM:221,221,"Den Haag, Gentsestraat",52.110603,4.290163,0,stoparea:HTM:221,,1,,
HTM:2210,2210,"Den Haag, Van Speijkstraat",52.083282,4.29362,0,stoparea:HTM:2210,,0,,
HTM:2211,2211,"Den Haag, Van Speijkstraat",52.083051,4.293845,0,stoparea:HTM:2210,,0,,
HTM:2212,2212,"Den Haag, Elandstraat",52.078372,4.292384,0,stoparea:HTM:2212,,1,,
HTM:2213,2213,"Den Haag, Elandstraat",52.078087,4.292712,0,stoparea:HTM:2212,,1,,
HTM:2216,2216,"Den Haag, Elandstraat",52.080483,4.297044,0,stoparea:HTM:2216,,0,,
HTM:2217,2217,"Den Haag, Elandstraat",52.080442,4.297498,0,stoparea:HTM:2216,,0,,
HTM:222,222,"Den Haag, Gentsestraat",52.110619,4.290951,0,stoparea:HTM:221,,1,,
HTM:2220,2220,"Den Haag, Prins Hendrikstraat",52.080219,4.28999,0,stoparea:HTM:2220,,0,,
HTM:223,223,"Den Haag, Duinkerksestraat",52.111312,4.295898,0,stoparea:HTM:223,,1,,
HTM:224,224,"Den Haag, Duinkerksestraat",52.111281,4.296395,0,stoparea:HTM:223,,1,,
HTM:225,225,"Den Haag, Doorniksestraat",52.110116,4.296818,0,stoparea:HTM:225,,1,,
HTM:226,226,"Den Haag, Doorniksestraat",52.109059,4.298114,0,stoparea:HTM:225,,1,,
HTM:227,227,"Den Haag, Pompstationsweg",52.107204,4.300757,0,stoparea:HTM:227,,1,,
HTM:228,228,"Den Haag, Pompstationsweg",52.106848,4.301131,0,stoparea:HTM:227,,1,,
HTM:2301,2301,"Den Haag, Javastraat",52.087063,4.303961,0,stoparea:HTM:2301,,0,,
HTM:2302,2302,"Den Haag, Javastraat",52.087607,4.303466,0,stoparea:HTM:2301,,0,,
HTM:2306,2306,"Den Haag, Javastraat",52.088213,4.304838,0,stoparea:HTM:2301,,0,,
HTM:2307,2307,"Den Haag, Mauritskade",52.085114,4.306036,0,stoparea:HTM:2307,,0,,
HTM:2308,2308,"Den Haag, Mauritskade",52.084748,4.306351,0,stoparea:HTM:2307,,0,,
HTM:2309,2309,"Den Haag, Dr. Kuyperstraat",52.087701,4.313795,0,stoparea:HTM:2309,,1,,
HTM:2310,2310,"Den Haag, Dr. Kuyperstraat",52.08696,4.314338,0,stoparea:HTM:2309,,1,,
HTM:2313,2313,"Den Haag, Mauritskade",52.084134,4.307023,0,stoparea:HTM:2307,,0,,
HTM:2401,2401,"Den Haag, Malieveld",52.084904,4.316532,0,stoparea:HTM:2401,,1,,
HTM:2403,2403,"Den Haag, Malieveld",52.08487,4.316795,0,stoparea:HTM:2401,,1,,
HTM:2501,2501,"Den Haag, Overbosch",52.090653,4.347272,0,stoparea:HTM:2501,,1,,
HTM:2502,2502,"Den Haag, Overbosch",52.091153,4.347888,0,stoparea:HTM:2501,,1,,
HTM:2503,2503,"Den Haag, Reigersbergenweg",52.092676,4.35242,0,stoparea:HTM:2503,,1,,
HTM:2504,2504,"Den Haag, Reigersbergenweg",52.092121,4.35058,0,stoparea:HTM:2503,,1,,
HTM:2505,2505,"Den Haag, Barnsteenhorst",52.094327,4.356162,0,stoparea:HTM:2505,,1,,
HTM:2506,2506,"Den Haag, Barnsteenhorst",52.094379,4.355956,0,stoparea:HTM:2505,,1,,
HTM:2507,2507,"Den Haag, Saffierhorst",52.096492,4.36014,0,stoparea:HTM:2507,,1,,
HTM:2508,2508,"Den Haag, Saffierhorst",52.096533,4.360708,0,stoparea:HTM:2507,,1,,
HTM:2509,2509,"Den Haag, Carel Reinierszkade",52.087031,4.348334,0,stoparea:HTM:2509,,1,,
HTM:2510,2510,"Den Haag, Carel Reinierszkade",52.086884,4.347944,0,stoparea:HTM:2509,,1,,
HTM:2513,2513,"Den Haag, Reigersbergenweg",52.089494,4.353413,0,stoparea:HTM:2513,,1,,
HTM:2514,2514,"Den Haag, Reigersbergenweg",52.08931,4.352965,0,stoparea:HTM:2513,,1,,
HTM:2515,2515,"Den Haag, Vlamenburg",52.091937,4.358377,0,stoparea:HTM:2515,,1,,
HTM:2516,2516,"Den Haag, Vlamenburg",52.091781,4.357986,0,stoparea:HTM:2515,,1,,
HTM:2517,2517,"Den Haag, Hofzichtlaan",52.093915,4.362534,0,stoparea:HTM:2517,,1,,
HTM:2518,2518,"Den Haag, Hofzichtlaan",52.094017,4.362897,0,stoparea:HTM:2517,,1,,
HTM:2519,2519,"Den Haag, Het Kleine Loo",52.094378,4.363078,0,stoparea:HTM:2519,,1,,
HTM:2520,2520,"Den Haag, Het Kleine Loo",52.095148,4.362754,0,stoparea:HTM:2519,,1,,
HTM:2521,2521,"Den Haag, Margarethaland",52.09205,4.365102,0,stoparea:HTM:2521,,1,,
HTM:2522,2522,"Den Haag, Margarethaland",52.091884,4.365718,0,stoparea:HTM:2521,,1,,
HTM:2523,2523,"Den Haag, Margarethaland",52.091793,4.365589,0,stoparea:HTM:2521,,1,,
HTM:2524,2524,"Den Haag, Margarethaland",52.091579,4.365784,0,stoparea:HTM:2521,,1,,
HTM:2526,2526,"Den Haag, Station Mariahoeve",52.091103,4.368873,0,stoparea:HTM:2525,,1,,
HTM:2531,2531,"Den Haag, Reigersbergenweg",52.089449,4.353473,0,stoparea:HTM:2531,,0,,
HTM:2532,2532,"Den Haag, Aegonplein",52.090342,4.367242,0,stoparea:HTM:2532,,1,,
HTM:2533,2533,"Den Haag, Aegonplein",52.090556,4.367047,0,stoparea:HTM:2532,,1,,
HTM:2601,2601,"Den Haag, Centraal Station",52.080989,4.323001,0,stoparea:HTM:2601,,1,E,
HTM:2604,2604,"Den Haag, Centraal Station",52.080507,4.323319,0,stoparea:HTM:2601,,1,H,
HTM:2605,2605,"Den Haag, Centraal Station",52.08105,4.323759,0,stoparea:HTM:2605,,1,A,
HTM:2606,2606,"Den Haag, Centraal Station",52.080952,4.323848,0,stoparea:HTM:2605,,1,B,
HTM:2607,2607,"Den Haag, Centraal Station",52.081264,4.324585,0,stoparea:HTM:2605,,1,C,
HTM:2608,2608,"Den Haag, Centraal Station",52.081185,4.324704,0,stoparea:HTM:2605,,1,D,
HTM:2609,2609,"Den Haag, Centraal Station",52.080512,4.324836,0,stoparea:HTM:2609,,0,,
HTM:2611,2611,"Den Haag, Centraal Station",52.080467,4.324881,0,stoparea:HTM:2609,,0,D,
HTM:2612,2612,"Den Haag, Centraal Station",52.080432,4.32494,0,stoparea:HTM:2609,,0,E,
HTM:2613,2613,"Den Haag, Centraal Station",52.080396,4.324985,0,stoparea:HTM:2609,,0,F,
HTM:2614,2614,"Den Haag, Centraal Station",52.080361,4.32503,0,stoparea:HTM:2609,,0,G,
HTM:2615,2615,"Den Haag, Centraal Station",52.080325,4.325074,0,stoparea:HTM:2609,,0,H,
HTM:2616,2616,"Den Haag, Centraal Station",52.080281,4.325134,0,stoparea:HTM:2609,,0,I,
HTM:2630,2630,"Den Haag, Centraal Station",52.08155,4.325351,0,stoparea:HTM:2605,,,,
HTM:2631,2631,"Den Haag, Prins Clauslaan",52.082793,4.329641,0,stoparea:HTM:2631,,1,,
HTM:2632,2632,"Den Haag, Prins Clauslaan",52.083406,4.330852,0,stoparea:HTM:2631,,1,,
HTM:2633,2633,"Den Haag, Koningin Marialaan",52.084459,4.333015,0,stoparea:HTM:2633,,0,,
HTM:2634,2634,"Den Haag, Koningin Marialaan",52.084498,4.333335,0,stoparea:HTM:2633,,1,,
HTM:2635,2635,"Den Haag, Laan van Nieuw Oost Indië",52.085899,4.33625,0,stoparea:HTM:2635,,1,,
HTM:2636,2636,"Den Haag, Laan van Nieuw Oost Indië",52.085663,4.335978,0,stoparea:HTM:2635,,1,,
HTM:2637,2637,"Den Haag, Theresiastraat",52.086542,4.336775,0,stoparea:HTM:2637,,1,,
HTM:2638,2638,"Den Haag, Theresiastraat",52.085919,4.337402,0,stoparea:HTM:2637,,1,,
HTM:2639,2639,"Den Haag, Spaarwaterstraat",52.087304,4.339529,0,stoparea:HTM:2639,,1,,
HTM:2640,2640,"Den Haag, Spaarwaterstraat",52.087879,4.340552,0,stoparea:HTM:2639,,1,,
HTM:2641,2641,"Den Haag, De Eerensplein",52.089277,4.344123,0,stoparea:HTM:2641,,1,,
HTM:2642,2642,"Den Haag, De Eerensplein",52.089199,4.344388,0,stoparea:HTM:2641,,1,,
HTM:2645,2645,"Den Haag, Ternoot",52.082001,4.332548,0,stoparea:HTM:2645,,1,,
HTM:2646,2646,"Den Haag, Ternoot",52.08227,4.333417,0,stoparea:HTM:2645,,1,,
HTM:2647,2647,"Den Haag, Oostinje",52.083795,4.338181,0,stoparea:HTM:2647,,1,,
HTM:2648,2648,"Den Haag, Oostinje",52.083984,4.339169,0,stoparea:HTM:2647,,1,,
HTM:2649,2649,"Den Haag, Juliana van Stolberglaan",52.084407,4.339247,0,stoparea:HTM:2649,,1,,
HTM:2650,2650,"Den Haag, Juliana van Stolberglaan",52.084264,4.339338,0,stoparea:HTM:2649,,1,,
HTM:2651,2651,"Den Haag, Stuyvesantplein",52.08462,4.342948,0,stoparea:HTM:2651,,0,,
HTM:2652,2652,"Den Haag, Stuyvesantplein",52.084384,4.342691,0,stoparea:HTM:2651,,1,,
HTM:2655,2655,"Den Haag, Stuyvesantstraat",52.081648,4.34239,0,stoparea:HTM:2655,,0,,
HTM:2656,2656,"Den Haag, Stuyvesantstraat",52.081827,4.34224,0,stoparea:HTM:2655,,0,,
HTM:2658,2658,"Den Haag, Station Laan van NOI",52.079148,4.345278,0,stoparea:HTM:2658,,1,,
HTM:2659,2659,"Den Haag, Station Laan van NOI",52.079425,4.345053,0,stoparea:HTM:2658,,1,,
HTM:2662,2662,"Den Haag, Beatrixkwartier",52.079741,4.33514,0,stoparea:HTM:2662,,1,,
HTM:2663,2663,"Den Haag, Beatrixkwartier",52.080312,4.33463,0,stoparea:HTM:2662,,1,,
HTM:2665,2665,"Den Haag, Stuyvesantplein",52.084314,4.342955,0,stoparea:HTM:2665,,0,,
HTM:2682,2682,"Den Haag, Laan van NOI",52.078982,4.342758,0,stoparea:HTM:2682,,1,,
HTM:2683,2683,"Den Haag, Laan van NOI",52.078715,4.342064,0,stoparea:HTM:2682,,1,,
HTM:2698,2698,"Den Haag, Station Laan van NOI",52.079775,4.343995,0,stoparea:HTM:2698,,1,,
HTM:2705,2705,"Den Haag, Rijswijkseplein/Station HS",52.071548,4.324626,0,stoparea:HTM:2705,,0,,
HTM:2706,2706,"Den Haag, Rijswijkseplein/Station HS",52.071887,4.32437,0,stoparea:HTM:2705,,0,,
HTM:2707,2707,"Den Haag, Rijswijkseplein",52.073201,4.32447,0,stoparea:HTM:2707,,1,,
HTM:2708,2708,"Den Haag, Rijswijkseplein",52.073151,4.324967,0,stoparea:HTM:2707,,1,,
HTM:2711,2711,"Den Haag, Weteringplein",52.075031,4.328147,0,stoparea:HTM:2711,,1,,
HTM:2712,2712,"Den Haag, Weteringplein",52.075437,4.328224,0,stoparea:HTM:2711,,1,,
HTM:2713,2713,"Den Haag, Weteringkade",52.074912,4.329827,0,stoparea:HTM:2713,,0,,
HTM:2714,2714,"Den Haag, Weteringkade",52.074283,4.3299,0,stoparea:HTM:2713,,0,,
HTM:2715,2715,"Den Haag, Rijswijkseplein",52.072445,4.323423,0,stoparea:HTM:2715,,0,,
HTM:2716,2716,"Den Haag, Rijswijkseplein",52.072303,4.32366,0,stoparea:HTM:2715,,0,,
HTM:2717,2717,"Den Haag, Rijswijkseplein",52.072409,4.32341,0,stoparea:HTM:2715,,0,,
HTM:2719,2719,"Den Haag, Station Hollands Spoor",52.070594,4.321527,0,stoparea:HTM:2719,,1,C,
HTM:2720,2720,"Den Haag, Station Hollands Spoor",52.070549,4.322491,0,stoparea:HTM:2719,,0,D,
HTM:2721,2721,"Den Haag, Station Hollands Spoor",52.070101,4.3217,0,stoparea:HTM:2719,,0,A,
HTM:2730,2730,"Den Haag, Station Hollands Spoor",52.070514,4.32255,0,stoparea:HTM:2719,,0,E,
HTM:2731,2731,"Den Haag, Station Hollands Spoor",52.070137,4.32164,0,stoparea:HTM:2719,,0,B,
HTM:2734,2734,"Den Haag, Bierkade",52.074878,4.321148,0,stoparea:HTM:2734,,0,,
HTM:2735,2735,"Den Haag, Bierkade",52.074779,4.321063,0,stoparea:HTM:2734,,0,,
HTM:2736,2736,"Den Haag, Station Hollands Spoor",52.069769,4.320716,0,stoparea:HTM:2719,,,,
HTM:2801,2801,"Den Haag, Noordwal",52.079921,4.302471,0,stoparea:HTM:2801,,0,,
HTM:2802,2802,"Den Haag, Noordwal",52.079565,4.302859,0,stoparea:HTM:2801,,0,,
HTM:2803,2803,"Den Haag, Kneuterdijk",52.081006,4.30901,0,stoparea:HTM:2803,,1,,
HTM:2804,2804,"Den Haag, Kneuterdijk",52.080356,4.309696,0,stoparea:HTM:2803,,1,,
HTM:2805,2805,"Den Haag, Buitenhof",52.080309,4.310383,0,stoparea:HTM:2805,,0,,
HTM:2806,2806,"Den Haag, Buitenhof",52.080428,4.310716,0,stoparea:HTM:2805,,0,,
HTM:2810,2810,"Den Haag, Malieveld",52.083787,4.317245,0,stoparea:HTM:2401,,1,,
HTM:2811,2811,"Den Haag, Malieveld",52.083572,4.317396,0,stoparea:HTM:2401,,1,,
HTM:2812,2812,"Den Haag, Korte Voorhout",52.082791,4.316437,0,stoparea:HTM:2812,,1,,
HTM:2813,2813,"Den Haag, Korte Voorhout",52.083105,4.317363,0,stoparea:HTM:2812,,1,,
HTM:2818,2818,"Den Haag, Gravenstraat",52.078179,4.309442,0,stoparea:HTM:2818,,1,,
HTM:2819,2819,"Den Haag, Gravenstraat",52.077949,4.308937,0,stoparea:HTM:2818,,1,,
HTM:2820,2820,"Den Haag, MCH Westeinde",52.073302,4.29913,0,stoparea:HTM:2820,,1,,
HTM:2821,2821,"Den Haag, Brouwersgracht",52.073492,4.303166,0,stoparea:HTM:2821,,1,,
HTM:2822,2822,"Den Haag, MCH Westeinde",52.072633,4.299657,0,stoparea:HTM:2820,,1,,
HTM:2823,2823,"Den Haag, Brouwersgracht",52.073901,4.304673,0,stoparea:HTM:2823,,1,,
HTM:2824,2824,"Den Haag, Brouwersgracht",52.073596,4.303689,0,stoparea:HTM:2823,,1,,
HTM:2825,2825,"Den Haag, Brouwersgracht",52.07304,4.305847,0,stoparea:HTM:2825,,1,,
HTM:2826,2826,"Den Haag, Brouwersgracht",52.073718,4.305291,0,stoparea:HTM:2825,,1,,
HTM:2828,2828,"Den Haag, Grote Markt",52.07496,4.307361,0,stoparea:HTM:2828,,1,,
HTM:2832,2832,"Den Haag, Centrum",52.077812,4.314572,0,stoparea:HTM:2832,,1,,
HTM:2833,2833,"Den Haag, Centrum",52.078256,4.313934,0,stoparea:HTM:2832,,1,,
HTM:2851,2851,"Den Haag, Bierkade",52.075214,4.319521,0,stoparea:HTM:2851,,1,,
HTM:2852,2852,"Den Haag, Bierkade",52.07578,4.318501,0,stoparea:HTM:2851,,1,,
HTM:2857,2857,"Den Haag, Nieuwe Haven",52.076326,4.318254,0,stoparea:HTM:2857,,1,,
HTM:2858,2858,"Den Haag, Nieuwe Haven",52.077117,4.320234,0,stoparea:HTM:2857,,1,,
HTM:2862,2862,"Den Haag, Kalvermarkt-Stadhuis",52.078156,4.316839,0,stoparea:HTM:2862,,0,,
HTM:2863,2863,"Den Haag, Kalvermarkt-Stadhuis",52.077951,4.316071,0,stoparea:HTM:2862,,0,,
HTM:2864,2864,"Den Haag, Buitenhof",52.078703,4.311779,0,stoparea:HTM:2864,,0,,
HTM:2865,2865,"Den Haag, Buitenhof",52.078928,4.311759,0,stoparea:HTM:2864,,0,,
HTM:2873,2873,"Den Haag, Kneuterdijk",52.081397,4.309511,0,stoparea:HTM:2873,,1,,
HTM:2874,2874,"Den Haag, Kneuterdijk",52.081365,4.308986,0,stoparea:HTM:2873,,1,,
HTM:2875,2875,"Den Haag, Brouwersgracht",52.073562,4.303909,0,stoparea:HTM:2821,,1,,
HTM:2880,2880,"Den Haag, Spui",52.077334,4.314394,0,stoparea:HTM:2880,,1,,
HTM:2881,2881,"Den Haag, Spui",52.077195,4.313945,0,stoparea:HTM:2880,,1,,
HTM:2882,2882,"Den Haag, Grote Markt",52.075471,4.309231,0,stoparea:HTM:2882,,1,,
HTM:2883,2883,"Den Haag, Grote Markt",52.075313,4.308607,0,stoparea:HTM:2882,,1,,
HTM:29004,29004,"Delft, Brasserskade",52.02403,4.351427,0,stoparea:HTM:9003,,1,,
HTM:2901,2901,"Den Haag, Loosduinseweg",52.073277,4.291604,0,stoparea:HTM:2901,,1,,
HTM:2902,2902,"Den Haag, Loosduinseweg",52.073044,4.291668,0,stoparea:HTM:2901,,,,
HTM:2903,2903,"Den Haag, Monstersestraat",52.07297,4.292385,0,stoparea:HTM:2903,,1,,
HTM:2904,2904,"Den Haag, Monstersestraat",52.073093,4.293067,0,stoparea:HTM:2903,,1,,
HTM:2908,2908,"Den Haag, Delftselaan",52.068095,4.295946,0,stoparea:HTM:2908,,1,,
HTM:2909,2909,"Den Haag, Vaillantplein",52.069525,4.299908,0,stoparea:HTM:2909,,0,,
HTM:2910,2910,"Den Haag, Vaillantplein",52.069662,4.300152,0,stoparea:HTM:2909,,1,,
HTM:2911,2911,"Den Haag, Hobbemaplein",52.066971,4.29784,0,stoparea:HTM:2911,,0,,
HTM:2912,2912,"Den Haag, Hobbemaplein",52.067117,4.298099,0,stoparea:HTM:2911,,0,,
HTM:2913,2913,"Den Haag, Hobbemaplein",52.06687,4.296647,0,stoparea:HTM:2913,,1,,
HTM:2914,2914,"Den Haag, Hobbemaplein",52.066444,4.296293,0,stoparea:HTM:2913,,1,,
HTM:2915,2915,"Den Haag, Vaillantlaan",52.06887,4.302972,0,stoparea:HTM:2915,,1,,
HTM:2916,2916,"Den Haag, Vaillantlaan",52.06874,4.302508,0,stoparea:HTM:2915,,1,,
HTM:2917,2917,"Den Haag, Om en Bij",52.070339,4.307283,0,stoparea:HTM:2917,,1,,
HTM:2918,2918,"Den Haag, Om en Bij",52.070227,4.306863,0,stoparea:HTM:2917,,1,,
HTM:2919,2919,"Den Haag, Hoefkade",52.06334,4.300845,0,stoparea:HTM:2919,,0,,
HTM:2920,2920,"Den Haag, Hoefkade",52.062886,4.301265,0,stoparea:HTM:2919,,0,,
HTM:2921,2921,"Den Haag, Wouwermanstraat",52.061459,4.308401,0,stoparea:HTM:2921,,0,,
HTM:2922,2922,"Den Haag, Wouwermanstraat",52.061593,4.309288,0,stoparea:HTM:2921,,0,,
HTM:2923,2923,"Den Haag, Wouwermanstraat",52.061173,4.308569,0,stoparea:HTM:2921,,0,,
HTM:2924,2924,"Den Haag, Wouwermanstraat",52.061521,4.309333,0,stoparea:HTM:2921,,0,,
HTM:2927,2927,"Den Haag, Jacob Catsstraat",52.066039,4.314796,0,stoparea:HTM:2925,,1,,
HTM:2928,2928,"Den Haag, Jacob Catsstraat",52.065939,4.314711,0,stoparea:HTM:2925,,1,,
HTM:2931,2931,"Den Haag, Hobbemaplein",52.066557,4.297792,0,stoparea:HTM:2931,,1,,
HTM:2932,2932,"Den Haag, Hobbemaplein",52.066004,4.298258,0,stoparea:HTM:2931,,1,,
HTM:2934,2934,"Den Haag, Delftselaan",52.069697,4.294244,0,stoparea:HTM:2908,,1,,
HTM:2935,2935,"Den Haag, Delftselaan",52.068483,4.294143,0,stoparea:HTM:2908,,0,,
HTM:2936,2936,"Den Haag, Monstersestraat",52.070764,4.292978,0,stoparea:HTM:2936,,0,,
HTM:3001,3001,"Den Haag, Loosduinseweg",52.0711,4.284671,0,stoparea:HTM:3001,,1,,
HTM:3002,3002,"Den Haag, Loosduinseweg",52.070619,4.285193,0,stoparea:HTM:3001,,0,,
HTM:3003,3003,"Den Haag, De la Reyweg",52.070944,4.285331,0,stoparea:HTM:3003,,1,,
HTM:3004,3004,"Den Haag, De la Reyweg",52.071178,4.286288,0,stoparea:HTM:3003,,1,,
HTM:3005,3005,"Den Haag, Paul Krugerplein",52.068729,4.289746,0,stoparea:HTM:3005,,0,,
HTM:3006,3006,"Den Haag, Paul Krugerplein",52.068888,4.289451,0,stoparea:HTM:3005,,0,,
HTM:3007,3007,"Den Haag, Paul Krugerplein",52.068485,4.289563,0,stoparea:HTM:3005,,0,,
HTM:3008,3008,"Den Haag, Paul Krugerplein",52.068599,4.290216,0,stoparea:HTM:3005,,0,,
HTM:3009,3009,"Den Haag, Schalk Burgerstraat",52.064799,4.292366,0,stoparea:HTM:3009,,1,,
HTM:301,301,"Den Haag, Cremerweg",52.105723,4.294152,0,stoparea:HTM:301,,0,,
HTM:3010,3010,"Den Haag, Schalk Burgerstraat",52.065057,4.293089,0,stoparea:HTM:3009,,1,,
HTM:302,302,"Den Haag, Cremerweg",52.105573,4.294462,0,stoparea:HTM:301,,0,,
HTM:303,303,"Den Haag, Wagenaarweg",52.101751,4.297212,0,stoparea:HTM:303,,1,,
HTM:304,304,"Den Haag, Wagenaarweg",52.101565,4.297435,0,stoparea:HTM:303,,1,,
HTM:305,305,"Den Haag, Badhuisweg",52.102766,4.300997,0,stoparea:HTM:305,,1,,
HTM:306,306,"Den Haag, Badhuisweg",52.103156,4.301323,0,stoparea:HTM:305,,1,,
HTM:309,309,"Den Haag, Maurits de Brauwweg",52.10937,4.306603,0,stoparea:HTM:309,,1,,
HTM:310,310,"Den Haag, Maurits de Brauwweg",52.108767,4.308442,0,stoparea:HTM:309,,1,,
HTM:3101,3101,"Den Haag, Kamperfoeliestraat",52.066861,4.27073,0,stoparea:HTM:3101,,1,,
HTM:3102,3102,"Den Haag, Kamperfoeliestraat",52.066927,4.271063,0,stoparea:HTM:3101,,1,,
HTM:3103,3103,"Den Haag, Valkenboslaan",52.068399,4.275592,0,stoparea:HTM:3103,,1,,
HTM:3104,3104,"Den Haag, Valkenboslaan",52.068835,4.277083,0,stoparea:HTM:3103,,1,,
HTM:3107,3107,"Den Haag, Fahrenheitstraat",52.069348,4.279025,0,stoparea:HTM:3107,,1,,
HTM:3108,3108,"Den Haag, Fahrenheitstraat",52.069656,4.280257,0,stoparea:HTM:3107,,1,,
HTM:3109,3109,"Den Haag, Tienhovenselaan",52.064721,4.277317,0,stoparea:HTM:3109,,1,,
HTM:311,311,"Den Haag, Plesmanweg",52.100351,4.301304,0,stoparea:HTM:311,,1,,
HTM:3110,3110,"Den Haag, Tienhovenselaan",52.0646,4.276882,0,stoparea:HTM:3109,,1,,
HTM:3115,3115,"Den Haag, Nunspeetlaan",52.066606,4.284737,0,stoparea:HTM:3115,,1,,
HTM:3116,3116,"Den Haag, Nunspeetlaan",52.066735,4.285055,0,stoparea:HTM:3115,,1,,
HTM:3119,3119,"Den Haag, Soestdijkseplein",52.062176,4.283957,0,stoparea:HTM:3119,,1,,
HTM:312,312,"Den Haag, Plesmanweg",52.100694,4.301441,0,stoparea:HTM:311,,1,,
HTM:3120,3120,"Den Haag, Soestdijkseplein",52.062013,4.283786,0,stoparea:HTM:3119,,1,,
HTM:3121,3121,"Den Haag, De la Reyweg",52.063536,4.288955,0,stoparea:HTM:3121,,1,,
HTM:3122,3122,"Den Haag, De la Reyweg",52.063464,4.288957,0,stoparea:HTM:3121,,1,,
HTM:3125,3125,"Den Haag, Barneveldstraat",52.061586,4.290986,0,stoparea:HTM:3125,,1,,
HTM:3126,3126,"Den Haag, Barneveldstraat",52.062026,4.290975,0,stoparea:HTM:3125,,1,,
HTM:3129,3129,"Den Haag, Dierenselaan",52.066687,4.281862,0,stoparea:HTM:3129,,1,,
HTM:3130,3130,"Den Haag, Dierenselaan",52.066994,4.28203,0,stoparea:HTM:3129,,1,,
HTM:3201,3201,"Den Haag, Volendamlaan",52.062254,4.259922,0,stoparea:HTM:3201,,1,,
HTM:3202,3202,"Den Haag, Volendamlaan",52.062191,4.260842,0,stoparea:HTM:3201,,1,,
HTM:3203,3203,"Den Haag, Nieuwendamlaan",52.063816,4.262493,0,stoparea:HTM:3203,,1,,
HTM:3204,3204,"Den Haag, Nieuwendamlaan",52.063926,4.262694,0,stoparea:HTM:3203,,1,,
HTM:3205,3205,"Den Haag, Laan van Eik en Duinen",52.065409,4.266434,0,stoparea:HTM:3205,,1,,
HTM:3206,3206,"Den Haag, Laan van Eik en Duinen",52.065509,4.266592,0,stoparea:HTM:3205,,1,,
HTM:3209,3209,"Den Haag, Escamplaan",52.059521,4.263549,0,stoparea:HTM:3209,,1,,
HTM:3210,3210,"Den Haag, Escamplaan",52.059243,4.263672,0,stoparea:HTM:3209,,1,,
HTM:3213,3213,"Den Haag, Monnickendamplein",52.061966,4.27021,0,stoparea:HTM:3213,,1,,
HTM:3214,3214,"Den Haag, Monnickendamplein",52.062241,4.270772,0,stoparea:HTM:3213,,1,,
HTM:3215,3215,"Den Haag, Leyenburg",52.056555,4.266496,0,stoparea:HTM:3215,,1,P,
HTM:3216,3216,"Den Haag, Leyenburg",52.057107,4.265899,0,stoparea:HTM:3215,,1,M,
HTM:3217,3217,"Den Haag, Leyenburg",52.057434,4.265322,0,stoparea:HTM:3217,,1,L,
HTM:3218,3218,"Den Haag, Leyenburg",52.057428,4.265672,0,stoparea:HTM:3217,,1,B,
HTM:3219,3219,"Den Haag, Zuiderpark",52.059154,4.278913,0,stoparea:HTM:3219,,1,,
HTM:3220,3220,"Den Haag, Zuiderpark",52.059616,4.279354,0,stoparea:HTM:3219,,1,,
HTM:3225,3225,"Den Haag, Volendamlaan",52.063128,4.261023,0,stoparea:HTM:3225,,0,,
HTM:3227,3227,"Den Haag, Leyenburg",52.056519,4.266424,0,stoparea:HTM:3227,,0,G,
HTM:3228,3228,"Den Haag, Leyenburg",52.056486,4.266774,0,stoparea:HTM:3227,,1,F,
HTM:3302,3302,"Den Haag, Drapeniersgaarde",52.038651,4.268503,0,stoparea:HTM:3302,,1,,
HTM:3303,3303,"Den Haag, Drapeniersgaarde",52.038525,4.268565,0,stoparea:HTM:3302,,1,,
HTM:3305,3305,"Den Haag, Beresteinlaan",52.04258,4.249878,0,stoparea:HTM:3305,,1,,
HTM:3306,3306,"Den Haag, Beresteinlaan",52.042342,4.249417,0,stoparea:HTM:3305,,1,,
HTM:3309,3309,"Den Haag, Bouwlustlaan",52.045865,4.254984,0,stoparea:HTM:3309,,1,,
HTM:3310,3310,"Den Haag, Bouwlustlaan",52.046067,4.255387,0,stoparea:HTM:3309,,1,,
HTM:3311,3311,"Den Haag, De Rade",52.048057,4.25853,0,stoparea:HTM:3311,,1,,
HTM:3312,3312,"Den Haag, De Rade",52.047837,4.258098,0,stoparea:HTM:3311,,1,,
HTM:3313,3313,"Den Haag, De Stede",52.042075,4.263709,0,stoparea:HTM:3313,,1,,
HTM:3314,3314,"Den Haag, De Stede",52.041923,4.263815,0,stoparea:HTM:3313,,0,,
HTM:3318,3318,"Den Haag, Beresteinlaan",52.040559,4.255614,0,stoparea:HTM:3318,,1,,
HTM:3319,3319,"Den Haag, Beresteinlaan",52.041125,4.256489,0,stoparea:HTM:3318,,1,,
HTM:3320,3320,"Den Haag, Vrederustlaan",52.042925,4.259592,0,stoparea:HTM:3320,,1,,
HTM:3321,3321,"Den Haag, Vrederustlaan",52.043576,4.260902,0,stoparea:HTM:3320,,0,,
HTM:3322,3322,"Den Haag, Hertenrade",52.045066,4.263518,0,stoparea:HTM:3322,,1,,
HTM:3323,3323,"Den Haag, Hertenrade",52.045348,4.263831,0,stoparea:HTM:3322,,1,,
HTM:3327,3327,"Den Haag, De Dreef",52.034733,4.257335,0,stoparea:HTM:3327,,1,,
HTM:3328,3328,"Den Haag, De Dreef",52.034568,4.257033,0,stoparea:HTM:3327,,1,,
HTM:3329,3329,"Den Haag, De Dreef",52.034927,4.257928,0,stoparea:HTM:3327,,,,
HTM:3330,3330,"Den Haag, Beresteinlaan",52.036655,4.260974,0,stoparea:HTM:3330,,0,,
HTM:3331,3331,"Den Haag, Beresteinlaan",52.037123,4.261924,0,stoparea:HTM:3330,,1,,
HTM:3333,3333,"Den Haag, Vrederustlaan",52.039511,4.266339,0,stoparea:HTM:3333,,1,,
HTM:3334,3334,"Den Haag, Vrederustlaan",52.040006,4.267362,0,stoparea:HTM:3333,,1,,
HTM:3335,3335,"Den Haag, Revalidatiecentrum",52.041205,4.26962,0,stoparea:HTM:3335,,0,,
HTM:3336,3336,"Den Haag, Revalidatiecentrum",52.041324,4.269778,0,stoparea:HTM:3335,,0,,
HTM:3339,3339,"Den Haag, Lozerlaan",52.03095,4.26122,0,stoparea:HTM:3337,,1,,
HTM:3340,3340,"Den Haag, Ambachtsweg",52.033297,4.266043,0,stoparea:HTM:3340,,1,,
HTM:3341,3341,"Den Haag, Ambachtsweg",52.033787,4.26743,0,stoparea:HTM:3340,,1,,
HTM:3342,3342,"Den Haag, Vrederustlaan",52.035948,4.271646,0,stoparea:HTM:3342,,1,,
HTM:3343,3343,"Den Haag, Vrederustlaan",52.036,4.271412,0,stoparea:HTM:3342,,1,,
HTM:3350,3350,"Den Haag, De Uithof",52.03948,4.245292,0,stoparea:HTM:3350,,1,,
HTM:3357,3357,"Den Haag, Lozerlaan",52.030456,4.260372,0,stoparea:HTM:3337,,1,,
HTM:3358,3358,"Den Haag, Melis Stokelaan",52.034979,4.253948,0,stoparea:HTM:3358,,1,,
HTM:3359,3359,"Den Haag, Melis Stokelaan",52.035072,4.25428,0,stoparea:HTM:3358,,1,,
HTM:3361,3361,"Den Haag, Randveen",52.038271,4.251401,0,stoparea:HTM:3361,,1,,
HTM:3362,3362,"Den Haag, Randveen",52.038265,4.251664,0,stoparea:HTM:3361,,1,,
HTM:3363,3363,"Den Haag, Erasmusweg",52.031737,4.257105,0,stoparea:HTM:3363,,1,,
HTM:3364,3364,"Den Haag, Erasmusweg",52.031813,4.257453,0,stoparea:HTM:3363,,1,,
HTM:3371,3371,"Den Haag, Ambachtsweg",52.033243,4.267006,0,stoparea:HTM:3371,,1,,
HTM:3372,3372,"Den Haag, Revalidatiecentrum",52.040673,4.26564,0,stoparea:HTM:3372,,1,,
HTM:3373,3373,"Den Haag, Revalidatiecentrum",52.040398,4.265982,0,stoparea:HTM:3372,,1,,
HTM:3383,3383,"Den Haag, Randveen (Uithof)",52.040893,4.247341,0,stoparea:HTM:3383,,0,,
HTM:3399,3399,"Den Haag, Melis Stokelaan",52.036423,4.262059,0,stoparea:HTM:3399,,0,,
HTM:3401,3401,"Den Haag, Dedemsvaartweg",52.05019,4.262573,0,stoparea:HTM:3401,,1,,
HTM:3402,3402,"Den Haag, Dedemsvaartweg",52.050023,4.262067,0,stoparea:HTM:3401,,1,,
HTM:3403,3403,"Den Haag, Zuidwoldepad",52.052876,4.266165,0,stoparea:HTM:3404,,1,,
HTM:3404,3404,"Den Haag, Zuidwoldepad",52.052766,4.266007,0,stoparea:HTM:3404,,1,,
HTM:3405,3405,"Den Haag, Meppelweg",52.053128,4.270912,0,stoparea:HTM:3405,,1,,
HTM:3406,3406,"Den Haag, Meppelweg",52.052676,4.271579,0,stoparea:HTM:3405,,1,,
HTM:3407,3407,"Den Haag, Almeloplein",52.055451,4.274193,0,stoparea:HTM:3407,,1,,
HTM:3408,3408,"Den Haag, Almeloplein",52.055428,4.274602,0,stoparea:HTM:3407,,1,,
HTM:3409,3409,"Den Haag, Gramsbergenlaan",52.053671,4.274237,0,stoparea:HTM:3409,,1,,
HTM:3410,3410,"Den Haag, Gramsbergenlaan",52.053383,4.275076,0,stoparea:HTM:3409,,1,,
HTM:3411,3411,"Den Haag, Zweeloostraat",52.047723,4.268743,0,stoparea:HTM:3411,,1,,
HTM:3412,3412,"Den Haag, Zweeloostraat",52.047568,4.268558,0,stoparea:HTM:3411,,1,,
HTM:3413,3413,"Den Haag, Leyweg",52.050043,4.274502,0,stoparea:HTM:3413,,1,,
HTM:3414,3414,"Den Haag, Leyweg",52.050154,4.274835,0,stoparea:HTM:3413,,1,,
HTM:3417,3417,"Den Haag, Leggelostraat",52.044465,4.275968,0,stoparea:HTM:3417,,1,,
HTM:3418,3418,"Den Haag, Leggelostraat",52.044556,4.276053,0,stoparea:HTM:3417,,1,,
HTM:3422,3422,"Den Haag, Leyweg",52.045729,4.278444,0,stoparea:HTM:3422,,1,,
HTM:3423,3423,"Den Haag, Leyweg",52.046673,4.280359,0,stoparea:HTM:3422,,1,,
HTM:3424,3424,"Den Haag, Loevesteinlaan",52.048245,4.283119,0,stoparea:HTM:3424,,1,,
HTM:3425,3425,"Den Haag, Loevesteinlaan",52.048464,4.283479,0,stoparea:HTM:3424,,1,,
HTM:3438,3438,"Den Haag, Fluitenbergstraat",52.051205,4.280568,0,stoparea:HTM:3438,,1,,
HTM:3439,3439,"Den Haag, Fluitenbergstraat",52.05136,4.280724,0,stoparea:HTM:3438,,1,,
HTM:3442,3442,"Den Haag, Steenwijklaan",52.041362,4.277692,0,stoparea:HTM:3442,,1,,
HTM:3443,3443,"Den Haag, Steenwijklaan",52.041883,4.276702,0,stoparea:HTM:3442,,1,,
HTM:3601,3601,"Den Haag, Loevesteinlaan",52.048135,4.284828,0,stoparea:HTM:3601,,1,,
HTM:3602,3602,"Den Haag, Loevesteinlaan",52.048006,4.285429,0,stoparea:HTM:3601,,1,,
HTM:3603,3603,"Den Haag, Zuiderpark",52.052922,4.291082,0,stoparea:HTM:3603,,0,,
HTM:3604,3604,"Den Haag, Zuiderpark",52.052672,4.29135,0,stoparea:HTM:3603,,0,,
HTM:3607,3607,"Den Haag, Anna Bijnslaan",52.055423,4.299098,0,stoparea:HTM:3607,,1,,
HTM:3608,3608,"Den Haag, Anna Bijnslaan",52.055794,4.300314,0,stoparea:HTM:3607,,1,,
HTM:3609,3609,"Den Haag, Hardenbroekstraat",52.045277,4.290657,0,stoparea:HTM:3609,,1,,
HTM:3610,3610,"Den Haag, Hardenbroekstraat",52.045157,4.290339,0,stoparea:HTM:3609,,1,,
HTM:3612,3612,"Den Haag, Cannenburglaan",52.044534,4.290004,0,stoparea:HTM:3612,,1,,
HTM:3613,3613,"Den Haag, Cannenburglaan",52.044014,4.291154,0,stoparea:HTM:3612,,1,,
HTM:3614,3614,"Den Haag, Remmersteinstraat",52.046796,4.293491,0,stoparea:HTM:3614,,1,,
HTM:3615,3615,"Den Haag, Remmersteinstraat",52.047033,4.29385,0,stoparea:HTM:3614,,0,,
HTM:3616,3616,"Den Haag, Geysterenweg",52.048085,4.295909,0,stoparea:HTM:3617,,1,,
HTM:3617,3617,"Den Haag, Geysterenweg",52.048185,4.296009,0,stoparea:HTM:3617,,0,,
HTM:3618,3618,"Den Haag, Erasmusplein",52.050491,4.300414,0,stoparea:HTM:3618,,1,,
HTM:3619,3619,"Den Haag, Erasmusplein",52.049814,4.299074,0,stoparea:HTM:3618,,1,,
HTM:3620,3620,"Den Haag, Heeswijkplein",52.051891,4.303048,0,stoparea:HTM:3620,,1,,
HTM:3621,3621,"Den Haag, Heeswijkplein",52.052119,4.303392,0,stoparea:HTM:3620,,0,,
HTM:3624,3624,"Den Haag, Moerweg",52.058533,4.294254,0,stoparea:HTM:3624,,1,,
HTM:3625,3625,"Den Haag, Moerweg",52.058527,4.294604,0,stoparea:HTM:3624,,1,,
HTM:3626,3626,"Den Haag, Station Moerwijk",52.054711,4.307689,0,stoparea:HTM:1520,,1,,
HTM:3627,3627,"Den Haag, Station Moerwijk",52.054547,4.307474,0,stoparea:HTM:1520,,1,,
HTM:3628,3628,"Den Haag, Station Moerwijk",52.055008,4.309694,0,stoparea:HTM:3628,,0,,
HTM:3629,3629,"Den Haag, Station Moerwijk",52.055488,4.307146,0,stoparea:HTM:3628,,1,,
HTM:3635,3635,"Den Haag, Erasmusplein",52.051094,4.300516,0,stoparea:HTM:3635,,0,,
HTM:3701,3701,"Den Haag, Dynamostraat",52.058477,4.305703,0,stoparea:HTM:3701,,1,,
HTM:3702,3702,"Den Haag, Dynamostraat",52.059369,4.306964,0,stoparea:HTM:3701,,1,,
HTM:3708,3708,"Den Haag, Melis Stokelaan",52.056332,4.303086,0,stoparea:HTM:3708,,1,,
HTM:3709,3709,"Den Haag, Melis Stokelaan",52.056778,4.301821,0,stoparea:HTM:3708,,1,,
HTM:3801,3801,"Den Haag, Goudriaankade",52.068214,4.327724,0,stoparea:HTM:3801,,0,,
HTM:3802,3802,"Den Haag, Goudriaankade",52.06792,4.327979,0,stoparea:HTM:3801,,0,,
HTM:3803,3803,"Den Haag, Calandplein",52.062901,4.313704,0,stoparea:HTM:3803,,1,,
HTM:3804,3804,"Den Haag, Calandplein",52.063204,4.313478,0,stoparea:HTM:3803,,1,,
HTM:3805,3805,"Den Haag, Laakkade",52.065578,4.326431,0,stoparea:HTM:3805,,,,
HTM:3807,3807,"Den Haag, Neherkade",52.061146,4.318471,0,stoparea:HTM:3807,,1,,
HTM:3808,3808,"Den Haag, Neherkade",52.06102,4.31846,0,stoparea:HTM:3807,,1,,
HTM:3809,3809,"Den Haag, Oudemansstraat",52.063202,4.325087,0,stoparea:HTM:3809,,1,,
HTM:3810,3810,"Den Haag, Oudemansstraat",52.062692,4.325332,0,stoparea:HTM:3809,,1,,
HTM:3813,3813,"Den Haag, Van Musschenbroekstraat",52.064749,4.330227,0,stoparea:HTM:3813,,1,,
HTM:3814,3814,"Den Haag, Van Musschenbroekstraat",52.065741,4.329635,0,stoparea:HTM:3813,,0,,
HTM:3815,3815,"Den Haag, Broeksloot",52.059768,4.333043,0,stoparea:HTM:3815,,1,,
HTM:3817,3817,"Den Haag, Van Zeggelenlaan",52.056513,4.316016,0,stoparea:HTM:3817,,1,,
HTM:3818,3818,"Den Haag, Van Zeggelenlaan",52.056292,4.315496,0,stoparea:HTM:3817,,1,,
HTM:3819,3819,"Den Haag, Jonckbloetplein",52.058933,4.321193,0,stoparea:HTM:3819,,1,,
HTM:3820,3820,"Den Haag, Jonckbloetplein",52.058066,4.321797,0,stoparea:HTM:3819,,1,,
HTM:3821,3821,"Den Haag, Jonckbloetplein",52.05868,4.322044,0,stoparea:HTM:3819,,1,,
HTM:3822,3822,"Den Haag, Jonckbloetplein",52.05893,4.32284,0,stoparea:HTM:3819,,1,,
HTM:3823,3823,"Den Haag, Lorentzplein",52.06147,4.32647,0,stoparea:HTM:3823,,1,,
HTM:3824,3824,"Den Haag, Lorentzplein",52.060864,4.32698,0,stoparea:HTM:3823,,1,,
HTM:3827,3827,"Den Haag, Wenckebachstraat",52.062744,4.332156,0,stoparea:HTM:3827,,1,,
HTM:3828,3828,"Den Haag, Wenckebachstraat",52.062066,4.332755,0,stoparea:HTM:3827,,1,,
HTM:3829,3829,"Den Haag, Alberdingk Thijmstraat",52.052036,4.313061,0,stoparea:HTM:3829,,1,,
HTM:3830,3830,"Den Haag, Alberdingk Thijmstraat",52.052136,4.313102,0,stoparea:HTM:3829,,1,,
HTM:3831,3831,"Den Haag, Ledeganckplein",52.052872,4.316934,0,stoparea:HTM:3831,,1,,
HTM:3832,3832,"Den Haag, Ledeganckplein",52.052962,4.317034,0,stoparea:HTM:3831,,1,,
HTM:3833,3833,"Den Haag, Jan van Beersstraat",52.055718,4.3235,0,stoparea:HTM:3833,,1,,
HTM:3834,3834,"Den Haag, Jan van Beersstraat",52.055747,4.323791,0,stoparea:HTM:3833,,1,,
HTM:3837,3837,"Den Haag, Broeksloot",52.060141,4.334624,0,stoparea:HTM:3815,,1,,
HTM:3838,3838,"Den Haag, Broeksloot",52.059054,4.335714,0,stoparea:HTM:3815,,1,,
HTM:3839,3839,"Den Haag, Leeghwaterplein",52.066386,4.321394,0,stoparea:HTM:3839,,1,,
HTM:3840,3840,"Den Haag, Leeghwaterplein",52.065932,4.321886,0,stoparea:HTM:3839,,1,,
HTM:3841,3841,"Den Haag, Alberdingk Thijmstraat",52.055826,4.311701,0,stoparea:HTM:3841,,1,,
HTM:3842,3842,"Den Haag, Alberdingk Thijmstraat",52.05592,4.312078,0,stoparea:HTM:3841,,1,,
HTM:3843,3843,"Den Haag, Stieltjesstraat",52.058673,4.312406,0,stoparea:HTM:3843,,0,,
HTM:3844,3844,"Den Haag, Stieltjesstraat",52.058645,4.312246,0,stoparea:HTM:3843,,0,,
HTM:3846,3846,"Den Haag, Station Hollands Spoor",52.0687,4.322812,0,stoparea:HTM:3846,,0,H,
HTM:3847,3847,"Den Haag, Station Hollands Spoor",52.068554,4.322582,0,stoparea:HTM:3846,,1,I,
HTM:3857,3857,"Den Haag, Megastores",52.064928,4.315231,0,stoparea:HTM:3857,,1,,
HTM:3858,3858,"Den Haag, Megastores",52.064789,4.314767,0,stoparea:HTM:3857,,1,,
HTM:3859,3859,"Den Haag, Megastores hoofdingang",52.066756,4.318585,0,stoparea:HTM:3859,,1,,
HTM:3860,3860,"Den Haag, Megastores hoofdingang",52.067065,4.318899,0,stoparea:HTM:3859,,1,,
HTM:3903,3903,"Den Haag, Poolsterstraat",52.07156,4.335026,0,stoparea:HTM:3903,,1,,
HTM:3904,3904,"Den Haag, Poolsterstraat",52.070754,4.335351,0,stoparea:HTM:3903,,1,,
HTM:3905,3905,"Den Haag, Wegastraat",52.068832,4.337453,0,stoparea:HTM:3905,,1,,
HTM:3906,3906,"Den Haag, Wegastraat",52.068193,4.338445,0,stoparea:HTM:3905,,1,,
HTM:3907,3907,"Den Haag, Zonweg",52.066976,4.341011,0,stoparea:HTM:3907,,1,,
HTM:3908,3908,"Den Haag, Zonweg",52.066927,4.340575,0,stoparea:HTM:3907,,1,,
HTM:3909,3909,"Den Haag, Melkwegstraat",52.068494,4.344972,0,stoparea:HTM:3909,,1,,
HTM:3910,3910,"Den Haag, Melkwegstraat",52.068277,4.345852,0,stoparea:HTM:3909,,1,,
HTM:3911,3911,"Den Haag, Saturnusstraat",52.067499,4.34835,0,stoparea:HTM:3911,,1,,
HTM:3916,3916,"Den Haag, Regulusweg",52.068384,4.351903,0,stoparea:HTM:3916,,1,,
HTM:3917,3917,"Den Haag, Regulusweg",52.068608,4.351752,0,stoparea:HTM:3916,,0,,
HTM:3919,3919,"Den Haag, Saturnusstraat",52.067196,4.347686,0,stoparea:HTM:3911,,1,,
HTM:4002,4002,"Den Haag, Laan van Wateringse Veld",52.027892,4.29149,0,stoparea:HTM:4002,,1,,
HTM:4005,4005,"Den Haag, Lage Veld",52.021933,4.29455,0,stoparea:HTM:4005,,1,,
HTM:4006,4006,"Den Haag, Lage Veld",52.022935,4.294001,0,stoparea:HTM:4005,,1,,
HTM:4009,4009,"Den Haag, Hoge Veld",52.03132,4.286072,0,stoparea:HTM:4009,,1,,
HTM:401,401,"Den Haag, Bronovo Ziekenhuis",52.101052,4.315007,0,stoparea:HTM:401,,1,,
HTM:4010,4010,"Den Haag, Hoge Veld",52.031588,4.285949,0,stoparea:HTM:4009,,1,,
HTM:4011,4011,"Den Haag, Oosteinde",52.026191,4.290308,0,stoparea:HTM:4011,,1,,
HTM:4012,4012,"Den Haag, Oosteinde",52.026521,4.290052,0,stoparea:HTM:4011,,1,,
HTM:4013,4013,"Den Haag, Parijsplein",52.019637,4.295101,0,stoparea:HTM:4013,,1,,
HTM:4014,4014,"Den Haag, Parijsplein",52.019998,4.296214,0,stoparea:HTM:4013,,1,,
HTM:402,402,"Den Haag, Bronovo Ziekenhuis",52.101213,4.314959,0,stoparea:HTM:401,,1,,
HTM:403,403,"Den Haag, Bronovo Ziekenhuis",52.103094,4.318213,0,stoparea:HTM:403,,1,,
HTM:404,404,"Den Haag, Bronovo Ziekenhuis",52.103568,4.317953,0,stoparea:HTM:403,,1,,
HTM:405,405,"Den Haag, Waalsdorperweg",52.104729,4.319108,0,stoparea:HTM:405,,1,,
HTM:406,406,"Den Haag, Waalsdorperweg",52.104215,4.317923,0,stoparea:HTM:405,,1,,
HTM:407,407,"Den Haag, Else Mauhslaan",52.105956,4.323516,0,stoparea:HTM:407,,1,,
HTM:408,408,"Den Haag, Stalpertstraat",52.105359,4.323166,0,stoparea:HTM:408,,1,,
HTM:409,409,"Den Haag, Theo Mann Bouwmeesterlaan",52.105388,4.325369,0,stoparea:HTM:409,,1,,
HTM:411,411,"Den Haag, Oostduinlaan",52.09667,4.311638,0,stoparea:HTM:411,,1,,
HTM:412,412,"Den Haag, Oostduinlaan",52.097412,4.313065,0,stoparea:HTM:411,,1,,
HTM:413,413,"Den Haag, Van der Woertstraat",52.098441,4.315566,0,stoparea:HTM:413,,1,,
HTM:414,414,"Den Haag, Van der Woertstraat",52.098641,4.315853,0,stoparea:HTM:413,,1,,
HTM:415,415,"Den Haag, Ruychrocklaan",52.100257,4.321506,0,stoparea:HTM:415,,1,,
HTM:416,416,"Den Haag, Ruychrocklaan",52.100188,4.321873,0,stoparea:HTM:415,,1,,
HTM:417,417,"Den Haag, Groenhovenstraat",52.095243,4.312767,0,stoparea:HTM:417,,1,,
HTM:418,418,"Den Haag, Groenhovenstraat",52.094526,4.313062,0,stoparea:HTM:417,,1,,
HTM:426,426,"Den Haag, Jozef Israëlsplein",52.092547,4.319837,0,stoparea:HTM:426,,1,,
HTM:427,427,"Den Haag, Jozef Israëlsplein",52.092193,4.319451,0,stoparea:HTM:426,,1,,
HTM:428,428,"Den Haag, Van Hoytemastraat",52.093601,4.323095,0,stoparea:HTM:428,,0,,
HTM:429,429,"Den Haag, Van Hoytemastraat",52.094068,4.324033,0,stoparea:HTM:428,,1,,
HTM:430,430,"Den Haag, Wassenaarseweg",52.096022,4.326409,0,stoparea:HTM:430,,1,,
HTM:431,431,"Den Haag, Wassenaarseweg",52.096265,4.326403,0,stoparea:HTM:430,,1,,
HTM:432,432,"Den Haag, Van Alkemadelaan",52.095455,4.328247,0,stoparea:HTM:432,,1,,
HTM:433,433,"Den Haag, Van Alkemadelaan",52.095591,4.328462,0,stoparea:HTM:432,,1,,
HTM:436,436,"Den Haag, Weissenbruchstraat",52.088805,4.317533,0,stoparea:HTM:436,,1,,
HTM:437,437,"Den Haag, Weissenbruchstraat",52.089741,4.319583,0,stoparea:HTM:436,,1,,
HTM:438,438,"Den Haag, Willem Witsenplein",52.093584,4.329166,0,stoparea:HTM:438,,1,,
HTM:439,439,"Den Haag, Willem Witsenplein",52.092803,4.330236,0,stoparea:HTM:438,,0,,
HTM:440,440,"Den Haag, Breitnerlaan",52.094367,4.330286,0,stoparea:HTM:440,,1,,
HTM:442,442,"Den Haag, Laan van Clingendael",52.095418,4.334158,0,stoparea:HTM:441,,1,,
HTM:447,447,"Den Haag, Wassenaarseweg",52.091529,4.315542,0,stoparea:HTM:447,,1,,
HTM:448,448,"Den Haag, Wassenaarseweg",52.091761,4.315419,0,stoparea:HTM:447,,1,,
HTM:501,501,"Den Haag, Ary van der Spuyweg",52.089856,4.293897,0,stoparea:HTM:501,,1,,
HTM:502,502,"Den Haag, Ary van der Spuyweg",52.089661,4.294194,0,stoparea:HTM:501,,0,,
HTM:503,503,"Den Haag, Bankaplein",52.093932,4.302116,0,stoparea:HTM:503,,1,,
HTM:504,504,"Den Haag, Bankaplein",52.093308,4.3027,0,stoparea:HTM:503,,1,,
HTM:505,505,"Den Haag, Riouwstraat",52.094882,4.307712,0,stoparea:HTM:505,,1,,
HTM:506,506,"Den Haag, Riouwstraat",52.094731,4.307891,0,stoparea:HTM:505,,1,,
HTM:507,507,"Den Haag, Vredespaleis",52.08725,4.297872,0,stoparea:HTM:507,,1,,
HTM:508,508,"Den Haag, Vredespaleis",52.087288,4.298133,0,stoparea:HTM:507,,0,,
HTM:509,509,"Den Haag, Vredespaleis",52.087251,4.29901,0,stoparea:HTM:507,,0,,
HTM:510,510,"Den Haag, Nassauplein",52.090243,4.305635,0,stoparea:HTM:510,,1,,
HTM:5101,5101,"Rijswijk, Herenstraat",52.056992,4.338256,0,stoparea:HTM:5101,,0,A,
HTM:5102,5102,"Rijswijk, Herenstraat",52.057103,4.338632,0,stoparea:HTM:5101,,0,B,
HTM:5103,5103,"Rijswijk, Herenstraat",52.056594,4.338075,0,stoparea:HTM:5103,,0,C,
HTM:5104,5104,"Rijswijk, Herenstraat",52.05638,4.338212,0,stoparea:HTM:5104,,0,D,
HTM:5105,5105,"Rijswijk, Bilderdijklaan",52.058225,4.341464,0,stoparea:HTM:5105,,0,,
HTM:5106,5106,"Rijswijk, Geestbrug",52.059171,4.343775,0,stoparea:HTM:5106,,0,,
HTM:5107,5107,"Rijswijk, Hoornbrug",52.053858,4.340618,0,stoparea:HTM:5107,,1,,
HTM:5108,5108,"Rijswijk, Hoornbrug",52.054108,4.340437,0,stoparea:HTM:5107,,0,,
HTM:511,511,"Den Haag, Nassauplein",52.089765,4.305544,0,stoparea:HTM:510,,1,,
HTM:513,513,"Den Haag, Laan Copes van Cattenburch",52.092858,4.309512,0,stoparea:HTM:513,,1,,
HTM:514,514,"Den Haag, Laan Copes van Cattenburch",52.092055,4.31013,0,stoparea:HTM:513,,1,,
HTM:515,515,"Den Haag, Alexanderplein",52.087085,4.301436,0,stoparea:HTM:515,,0,,
HTM:516,516,"Den Haag, Alexanderplein",52.087598,4.302489,0,stoparea:HTM:515,,0,,
HTM:519,519,"Den Haag, Javabrug",52.090119,4.311752,0,stoparea:HTM:519,,1,,
HTM:520,520,"Den Haag, Javabrug",52.089414,4.312338,0,stoparea:HTM:519,,1,,
HTM:5205,5205,"Rijswijk, Esdoornstraat",52.054301,4.337881,0,stoparea:HTM:5205,,0,,
HTM:5206,5206,"Rijswijk, Esdoornstraat",52.053995,4.337888,0,stoparea:HTM:5205,,0,,
HTM:5209,5209,"Rijswijk, Hendrik Ravesteijnplein",52.048487,4.332098,0,stoparea:HTM:5209,,1,,
HTM:5210,5210,"Rijswijk, Hendrik Ravesteijnplein",52.048904,4.332497,0,stoparea:HTM:5209,,1,,
HTM:5211,5211,"Rijswijk, Paulus Potterlaan",52.050627,4.335139,0,stoparea:HTM:5211,,0,,
HTM:5212,5212,"Rijswijk, Paulus Potterlaan",52.050525,4.334821,0,stoparea:HTM:5211,,0,,
HTM:5215,5215,"Rijswijk, Van Vredenburchweg",52.051748,4.327837,0,stoparea:HTM:5215,,1,,
HTM:5216,5216,"Rijswijk, Van Vredenburchweg",52.052669,4.327363,0,stoparea:HTM:5215,,1,,
HTM:5217,5217,"Rijswijk, Generaal Spoorlaan",52.048126,4.330926,0,stoparea:HTM:5217,,1,,
HTM:5218,5218,"Rijswijk, Generaal Spoorlaan",52.048386,4.330803,0,stoparea:HTM:5217,,1,,
HTM:5301,5301,"Rijswijk, Van Vredenburchweg",52.045683,4.317222,0,stoparea:HTM:5301,,1,,
HTM:5302,5302,"Rijswijk, Van Vredenburchweg",52.045908,4.317173,0,stoparea:HTM:5301,,1,,
HTM:5303,5303,"Rijswijk, Generaal Spoorlaan",52.042886,4.319957,0,stoparea:HTM:5303,,1,,
HTM:5304,5304,"Rijswijk, Generaal Spoorlaan",52.042898,4.320364,0,stoparea:HTM:5303,,1,,
HTM:5305,5305,"Rijswijk, Huis te Landelaan",52.043095,4.322269,0,stoparea:HTM:5305,,1,,
HTM:5306,5306,"Rijswijk, Huis te Landelaan",52.043045,4.322664,0,stoparea:HTM:5305,,1,,
HTM:5307,5307,"Rijswijk, Rijswijkse Schouwburg",52.045788,4.326768,0,stoparea:HTM:5307,,1,,
HTM:5308,5308,"Rijswijk, Rijswijkse Schouwburg",52.046375,4.328066,0,stoparea:HTM:5307,,1,,
HTM:5309,5309,"Rijswijk, Dr. H. Colijnlaan",52.04131,4.322618,0,stoparea:HTM:5309,,1,,
HTM:5310,5310,"Rijswijk, Dr. H. Colijnlaan",52.041809,4.322183,0,stoparea:HTM:5309,,1,,
HTM:5405,5405,"Rijswijk, In de Bogaard",52.037631,4.31638,0,stoparea:HTM:5405,,1,,
HTM:5406,5406,"Rijswijk, In de Bogaard",52.037898,4.316155,0,stoparea:HTM:5405,,1,,
HTM:5409,5409,"Rijswijk, Prinses Beatrixlaan",52.039158,4.313282,0,stoparea:HTM:5409,,1,,
HTM:5410,5410,"Rijswijk, Prinses Beatrixlaan",52.038895,4.313085,0,stoparea:HTM:5409,,1,,
HTM:5411,5411,"Rijswijk, Rijswijk Station",52.037358,4.322027,0,stoparea:HTM:5411,,0,B,
HTM:5412,5412,"Rijswijk, Rijswijk Station",52.037678,4.322617,0,stoparea:HTM:5411,,0,C,
HTM:5413,5413,"Rijswijk, In de Bogaard",52.034735,4.317178,0,stoparea:HTM:5413,,0,,
HTM:5414,5414,"Rijswijk, In de Bogaard",52.034653,4.317078,0,stoparea:HTM:5413,,0,,
HTM:5421,5421,"Rijswijk, Rijswijk Station",52.037658,4.322326,0,stoparea:HTM:5421,,0,A,
HTM:5422,5422,"Rijswijk, Rijswijk Station",52.037625,4.32272,0,stoparea:HTM:5421,,0,D,
HTM:5501,5501,"Rijswijk, Sammersweg",52.042136,4.29601,0,stoparea:HTM:5501,,1,,
HTM:5502,5502,"Rijswijk, Sammersweg",52.042761,4.294625,0,stoparea:HTM:5501,,1,,
HTM:5503,5503,"Rijswijk, De Schilp",52.037498,4.300919,0,stoparea:HTM:5503,,1,,
HTM:5504,5504,"Rijswijk, De Schilp",52.039519,4.299791,0,stoparea:HTM:5503,,1,,
HTM:5509,5509,"Rijswijk, Minister van den Tempellaan",52.03779,4.309176,0,stoparea:HTM:5509,,1,,
HTM:5510,5510,"Rijswijk, Minister van den Tempellaan",52.037671,4.308013,0,stoparea:HTM:5509,,1,,
HTM:5514,5514,"Rijswijk, Sir Winston Churchilllaan",52.031812,4.304233,0,stoparea:HTM:5514,,1,,
HTM:5515,5515,"Rijswijk, Sir Winston Churchilllaan",52.03184,4.304364,0,stoparea:HTM:5514,,1,,
HTM:5519,5519,"Rijswijk, Prinses Marijkesingel",52.034363,4.303093,0,stoparea:HTM:5519,,1,,
HTM:5520,5520,"Rijswijk, Prinses Marijkesingel",52.034173,4.302967,0,stoparea:HTM:5519,,1,,
HTM:5601,5601,"Rijswijk, Wethouder Brederodelaan",52.030898,4.312431,0,stoparea:HTM:5601,,1,,
HTM:5602,5602,"Rijswijk, Wethouder Brederodelaan",52.031094,4.313184,0,stoparea:HTM:5601,,1,,
HTM:5603,5603,"Rijswijk, Albert Schweitzerlaan",52.028116,4.312964,0,stoparea:HTM:5603,,1,,
HTM:5604,5604,"Rijswijk, Albert Schweitzerlaan",52.02792,4.31208,0,stoparea:HTM:5603,,1,,
HTM:5605,5605,"Rijswijk, Aletta Jacobsstraat",52.026932,4.309277,0,stoparea:HTM:5605,,1,,
HTM:5606,5606,"Rijswijk, Aletta Jacobsstraat",52.026774,4.308741,0,stoparea:HTM:5605,,1,,
HTM:5613,5613,"Rijswijk, Weidedreef",52.028226,4.319038,0,stoparea:HTM:5613,,1,,
HTM:5614,5614,"Rijswijk, Weidedreef",52.028108,4.318924,0,stoparea:HTM:5613,,1,,
HTM:5615,5615,"Rijswijk, Aletta Jacobsstraat",52.024593,4.312014,0,stoparea:HTM:5615,,1,,
HTM:5616,5616,"Rijswijk, Aletta Jacobsstraat",52.024696,4.31242,0,stoparea:HTM:5615,,1,,
HTM:5617,5617,"Rijswijk, Eikelenburg",52.022607,4.306117,0,stoparea:HTM:5617,,1,,
HTM:5618,5618,"Rijswijk, Eikelenburg",52.0227,4.306508,0,stoparea:HTM:5617,,1,,
HTM:5620,5620,"Rijswijk, Schaapweg",52.030957,4.304196,0,stoparea:HTM:5620,,1,,
HTM:5623,5623,"Rijswijk, Pater Doumenstraat",52.028621,4.30622,0,stoparea:HTM:5623,,1,,
HTM:5624,5624,"Rijswijk, Pater Doumenstraat",52.029397,4.305603,0,stoparea:HTM:5623,,1,,
HTM:5701,5701,"Rijswijk, Admiraal Helfrichsingel",52.033787,4.320684,0,stoparea:HTM:5701,,1,,
HTM:5702,5702,"Rijswijk, Admiraal Helfrichsingel",52.033825,4.320901,0,stoparea:HTM:5701,,1,,
HTM:5703,5703,"Rijswijk, Admiraal Helfrichsingel",52.032233,4.31782,0,stoparea:HTM:5703,,1,,
HTM:5704,5704,"Rijswijk, Admiraal Helfrichsingel",52.032465,4.317655,0,stoparea:HTM:5703,,1,,
HTM:5705,5705,"Rijswijk, Klaroenstraat",52.035337,4.324174,0,stoparea:HTM:5705,,1,,
HTM:5706,5706,"Rijswijk, Klaroenstraat",52.03548,4.324054,0,stoparea:HTM:5705,,1,,
HTM:5839,5839,"Rijswijk, Handelskade",52.044213,4.336587,0,stoparea:HTM:5839,,1,,
HTM:5840,5840,"Rijswijk, Handelskade",52.044905,4.335623,0,stoparea:HTM:5839,,1,,
HTM:5841,5841,"Rijswijk, Patentlaan",52.040925,4.337859,0,stoparea:HTM:5841,,1,,
HTM:5842,5842,"Rijswijk, Patentlaan",52.041556,4.339025,0,stoparea:HTM:5841,,1,,
HTM:5843,5843,"Rijswijk, Volmerlaan",52.037415,4.329269,0,stoparea:HTM:5843,,0,,
HTM:5844,5844,"Rijswijk, Volmerlaan",52.037325,4.331268,0,stoparea:HTM:5843,,1,,
HTM:5846,5846,"Rijswijk, Treubstraat",52.039249,4.326325,0,stoparea:HTM:5846,,0,,
HTM:5847,5847,"Rijswijk, Treubstraat",52.039462,4.326014,0,stoparea:HTM:5846,,0,,
HTM:5901,5901,"Rijswijk, Broekpolder",52.049458,4.345255,0,stoparea:HTM:5901,,1,,
HTM:5902,5902,"Rijswijk, Broekpolder",52.049811,4.34548,0,stoparea:HTM:5901,,1,,
HTM:5905,5905,"Rijswijk, 's-Gravenmade",52.044604,4.344246,0,stoparea:HTM:5905,,0,,
HTM:5906,5906,"Rijswijk, 's-Gravenmade",52.044838,4.34424,0,stoparea:HTM:5905,,1,,
HTM:5907,5907,"Rijswijk, Verffabriek",52.033457,4.346108,0,stoparea:HTM:5907,,0,,
HTM:5908,5908,"Rijswijk, Verffabriek",52.033681,4.346089,0,stoparea:HTM:5907,,1,,
HTM:5911,5911,"Rijswijk, Vlietbrug",52.041776,4.344647,0,stoparea:HTM:5911,,0,,
HTM:5912,5912,"Rijswijk, Vlietbrug",52.042082,4.34464,0,stoparea:HTM:5911,,1,,
HTM:5934,5934,"Rijswijk, Broekpolder",52.049302,4.346906,0,stoparea:HTM:5934,,1,,
HTM:5935,5935,"Rijswijk, Broekpolder",52.049525,4.346697,0,stoparea:HTM:5934,,1,,
HTM:5936,5936,"Den Haag, Laan van 's-Gravenmade (P+R Hoornwijck)",52.048295,4.353023,0,stoparea:HTM:5936,,1,,
HTM:5937,5937,"Den Haag, Laan van 's-Gravenmade (P+R Hoornwijck)",52.048346,4.352614,0,stoparea:HTM:5936,,1,,
HTM:5938,5938,"Den Haag, Laan van Ypenburg",52.044101,4.361619,0,stoparea:HTM:5938,,1,,
HTM:5939,5939,"Den Haag, Laan van Ypenburg",52.044853,4.360261,0,stoparea:HTM:5938,,1,,
HTM:5940,5940,"Den Haag, Plesmanlaan",52.04067,4.368155,0,stoparea:HTM:5940,,1,,
HTM:5941,5941,"Den Haag, Plesmanlaan",52.041104,4.367402,0,stoparea:HTM:5940,,1,,
HTM:5942,5942,"Den Haag, Laan van Ypenburg",52.044055,4.361474,0,stoparea:HTM:5938,,1,,
HTM:5943,5943,"Den Haag, Anthony Fokkersingel",52.038363,4.35713,0,stoparea:HTM:5946,,,,
HTM:5944,5944,"Den Haag, Ypenburg Centrum",52.039119,4.368598,0,stoparea:HTM:1522,,1,,
HTM:5945,5945,"Den Haag, Ypenburg Centrum",52.039538,4.369288,0,stoparea:HTM:1522,,1,,
HTM:5946,5946,"Den Haag, Anthony Fokkersingel",52.03543,4.363071,0,stoparea:HTM:1524,,1,,
HTM:5947,5947,"Den Haag, Anthony Fokkersingel",52.035822,4.363718,0,stoparea:HTM:1524,,1,,
HTM:5948,5948,"Den Haag, Defensie",52.027736,4.362037,0,stoparea:HTM:5948,,1,,
HTM:6003,6003,"Wateringen, Willem III straat",52.028194,4.271096,0,stoparea:HTM:6003,,0,,
HTM:6005,6005,"Wateringen, Plein",52.023927,4.274146,0,stoparea:HTM:6005,,1,,
HTM:601,601,"Den Haag, Madurodam",52.098707,4.301373,0,stoparea:HTM:601,,1,,
HTM:6019,6019,"Wateringen, Dorpskade",52.017223,4.289653,0,stoparea:HTM:6019,,1,,
HTM:602,602,"Den Haag, Madurodam",52.099349,4.299839,0,stoparea:HTM:601,,1,,
HTM:6020,6020,"Wateringen, Dorpskade",52.016996,4.288522,0,stoparea:HTM:6019,,1,,
HTM:6022,6022,"Wateringen, Dorpskade",52.017249,4.28958,0,stoparea:HTM:6019,,1,,
HTM:603,603,"Den Haag, Madurodam",52.097408,4.299916,0,stoparea:HTM:603,,1,,
HTM:604,604,"Den Haag, Madurodam",52.097463,4.30006,0,stoparea:HTM:603,,1,,
HTM:605,605,"Den Haag, Kerkhoflaan",52.094687,4.301164,0,stoparea:HTM:605,,1,,
HTM:608,608,"Den Haag, Madurodam",52.098532,4.300895,0,stoparea:HTM:601,,1,,
HTM:7003,7003,"Voorburg, Laan van Heldenburg",52.068328,4.36401,0,stoparea:HTM:7003,,1,,
HTM:7004,7004,"Voorburg, Laan van Heldenburg",52.067995,4.362909,0,stoparea:HTM:7003,,1,,
HTM:701,701,"Den Haag, Strandweg",52.106426,4.270413,0,stoparea:HTM:701,,1,,
HTM:702,702,"Den Haag, Badhuiskade",52.108592,4.276972,0,stoparea:HTM:702,,0,,
HTM:703,703,"Den Haag, Badhuiskade",52.108206,4.277011,0,stoparea:HTM:702,,0,,
HTM:706,706,"Den Haag, Schev.slag/Beelden aan Zee",52.110998,4.280547,0,stoparea:HTM:706,,0,,
HTM:707,707,"Den Haag, Schev.slag/Beelden aan Zee",52.1113,4.28108,0,stoparea:HTM:706,,0,,
HTM:708,708,"Den Haag, Circustheater",52.111294,4.283314,0,stoparea:HTM:708,,1,,
HTM:709,709,"Den Haag, Circustheater",52.111489,4.283032,0,stoparea:HTM:708,,1,,
HTM:710,710,"Den Haag, Vuurbaakstraat",52.104211,4.270935,0,stoparea:HTM:710,,1,,
HTM:7101,7101,"Voorburg, Binckhorstlaan",52.059799,4.344694,0,stoparea:HTM:7101,,0,,
HTM:7102,7102,"Voorburg, Binckhorstlaan",52.061053,4.346137,0,stoparea:HTM:7101,,0,,
HTM:7103,7103,"Voorburg, Diaconessenhuis",52.062857,4.34996,0,stoparea:HTM:7103,,0,,
HTM:7104,7104,"Voorburg, Diaconessenhuis",52.06293,4.350046,0,stoparea:HTM:7103,,0,,
HTM:7105,7105,"Voorburg, Redenburgstraat",52.064559,4.353391,0,stoparea:HTM:7105,,0,,
HTM:711,711,"Den Haag, Vuurbaakstraat",52.104436,4.27093,0,stoparea:HTM:710,,1,,
HTM:7110,7110,"Voorburg, Voorburg Station",52.067237,4.358391,0,stoparea:HTM:7110,,1,B,
HTM:7111,7111,"Voorburg, Voorburg Station",52.067253,4.35823,0,stoparea:HTM:7110,,1,E,
HTM:7112,7112,"Voorburg, Sonnenburghlaan",52.065445,4.354961,0,stoparea:HTM:7112,,0,,
HTM:7114,7114,"Voorburg, Voorburg Station",52.067118,4.358174,0,stoparea:HTM:7110,,1,A,
HTM:7116,7116,"Voorburg, Voorburg Station",52.066469,4.358977,0,stoparea:HTM:7110,,1,C,
HTM:712,712,"Den Haag, Stevinstraat",52.10956,4.286277,0,stoparea:HTM:219,,1,,
HTM:713,713,"Den Haag, Stevinstraat",52.109393,4.286689,0,stoparea:HTM:219,,1,,
HTM:714,714,"Den Haag, Keizerstraat",52.103898,4.276797,0,stoparea:HTM:714,,0,,
HTM:715,715,"Den Haag, Keizerstraat",52.104295,4.276947,0,stoparea:HTM:714,,0,,
HTM:716,716,"Den Haag, Duinstraat",52.101552,4.273936,0,stoparea:HTM:716,,1,,
HTM:717,717,"Den Haag, Duinstraat",52.101666,4.273656,0,stoparea:HTM:716,,1,,
HTM:718,718,"Den Haag, Duinstraat",52.101121,4.27399,0,stoparea:HTM:718,,1,,
HTM:719,719,"Den Haag, Duinstraat",52.101598,4.274985,0,stoparea:HTM:718,,1,,
HTM:720,720,"Den Haag, Prins Willemstraat",52.101918,4.277459,0,stoparea:HTM:720,,1,,
HTM:7201,7201,"Voorburg, Rozenboomlaan",52.069822,4.36523,0,stoparea:HTM:7201,,1,,
HTM:7202,7202,"Voorburg, Rozenboomlaan",52.07078,4.364844,0,stoparea:HTM:7201,,1,,
HTM:7211,7211,"Voorburg, Leidschendam-Voorburg",52.077501,4.382225,0,stoparea:HTM:7211,,1,,
HTM:7212,7212,"Voorburg, Leidschendam-Voorburg",52.07773,4.381709,0,stoparea:HTM:7211,,1,,
HTM:722,722,"Den Haag, Duinstraat",52.101967,4.278917,0,stoparea:HTM:722,,1,,
HTM:723,723,"Den Haag, Duinstraat",52.102163,4.278737,0,stoparea:HTM:722,,1,,
HTM:724,724,"Den Haag, Haringkade",52.104094,4.286251,0,stoparea:HTM:724,,1,,
HTM:725,725,"Den Haag, Haringkade",52.104608,4.286399,0,stoparea:HTM:724,,1,,
HTM:726,726,"Den Haag, Nieuwe Parklaan",52.107066,4.288718,0,stoparea:HTM:726,,1,,
HTM:727,727,"Den Haag, Nieuwe Parklaan",52.107285,4.289077,0,stoparea:HTM:726,,1,,
HTM:728,728,"Den Haag, Nieuwe Duinweg",52.107545,4.289012,0,stoparea:HTM:728,,1,,
HTM:729,729,"Den Haag, Nieuwe Duinweg",52.107387,4.289396,0,stoparea:HTM:728,,1,,
HTM:730,730,"Den Haag, Douzastraat",52.09281,4.266813,0,stoparea:HTM:730,,0,,
HTM:7301,7301,"Voorburg, Leidschendam Voorburg",52.078121,4.382299,0,stoparea:HTM:7210,,1,,
HTM:731,731,"Den Haag, Douzastraat",52.093858,4.268261,0,stoparea:HTM:730,,1,,
HTM:732,732,"Den Haag, Statenlaan",52.096457,4.270283,0,stoparea:HTM:732,,1,,
HTM:733,733,"Den Haag, Statenlaan",52.096872,4.270477,0,stoparea:HTM:732,,0,,
HTM:734,734,"Den Haag, Rusthoekstraat",52.101494,4.283074,0,stoparea:HTM:734,,1,,
HTM:735,735,"Den Haag, Rusthoekstraat",52.102112,4.283818,0,stoparea:HTM:734,,1,,
HTM:736,736,"Den Haag, Strandweg",52.106075,4.271254,0,stoparea:HTM:701,,1,,
HTM:740,740,"Den Haag, Zuiderstrandtheater",52.096399,4.259528,0,stoparea:HTM:740,,,,
HTM:7411,7411,"Voorburg, Bruijnings Ingenhoeslaan",52.078108,4.349606,0,stoparea:HTM:7411,,1,,
HTM:7412,7412,"Voorburg, Bruijnings Ingenhoeslaan",52.077933,4.350223,0,stoparea:HTM:7411,,1,,
HTM:7501,7501,"Voorburg , Mgr. van Steelaan",52.076891,4.354332,0,stoparea:HTM:7505,,1,,
HTM:7505,7505,"Voorburg , Mgr. van Steelaan",52.077121,4.353889,0,stoparea:HTM:7505,,1,,
HTM:7506,7506,"Voorburg, Mgr. van Steelaan",52.076955,4.354476,0,stoparea:HTM:7505,,1,,
HTM:7507,7507,"Voorburg, Spinozalaan",52.076855,4.360547,0,stoparea:HTM:7507,,1,,
HTM:7508,7508,"Voorburg, Spinozalaan",52.077025,4.360456,0,stoparea:HTM:7507,,1,,
HTM:7509,7509,"Voorburg, Koningin Julianaplein",52.075136,4.361287,0,stoparea:HTM:7509,,1,,
HTM:7510,7510,"Voorburg, Koningin Julianaplein",52.075195,4.36184,0,stoparea:HTM:7509,,1,,
HTM:7601,7601,"Voorburg, Voorburg 't Loo",52.081541,4.364992,0,stoparea:HTM:7601,,1,,
HTM:7602,7602,"Voorburg, Voorburg 't Loo",52.082081,4.366146,0,stoparea:HTM:7601,,1,,
HTM:7603,7603,"Voorburg, Prinses Beatrixlaan",52.079299,4.360433,0,stoparea:HTM:7603,,1,,
HTM:7604,7604,"Voorburg, Prinses Beatrixlaan",52.079098,4.360073,0,stoparea:HTM:7603,,1,,
HTM:7611,7611,"Voorburg, Voorburg 't Loo",52.082255,4.365486,0,stoparea:HTM:7611,,1,,
HTM:7612,7612,"Voorburg, Voorburg 't Loo",52.082476,4.36497,0,stoparea:HTM:7611,,1,,
HTM:7701,7701,"Voorburg, Station Mariahoeve",52.089249,4.368595,0,stoparea:HTM:7701,,1,,
HTM:7702,7702,"Voorburg, Station Mariahoeve",52.088617,4.369353,0,stoparea:HTM:7701,,1,,
HTM:7703,7703,"Voorburg, Essesteijn",52.086908,4.372413,0,stoparea:HTM:7703,,1,,
HTM:7704,7704,"Voorburg, Essesteijn",52.087211,4.373077,0,stoparea:HTM:7703,,1,,
HTM:7705,7705,"Voorburg, Elzendreef",52.084263,4.369948,0,stoparea:HTM:7705,,1,,
HTM:7706,7706,"Voorburg, Elzendreef",52.084053,4.369676,0,stoparea:HTM:7705,,1,,
HTM:8001,8001,"Zoetermeer, Centrum-West",52.061408,4.48277,0,stoparea:HTM:8001,,1,H,
HTM:801,801,"Den Haag, Markenseplein",52.08771,4.252349,0,stoparea:HTM:801,,1,,
HTM:8016,8016,"Zoetermeer, Hoflaan",52.064074,4.464895,0,stoparea:HTM:8016,,1,,
HTM:8019,8019,"Zoetermeer, Buytenparklaan",52.064704,4.45937,0,stoparea:HTM:8018,,1,,
HTM:802,802,"Den Haag, Markenseplein",52.088161,4.252527,0,stoparea:HTM:802,,1,,
HTM:803,803,"Den Haag, Tesselseplein",52.090104,4.258315,0,stoparea:HTM:803,,0,,
HTM:804,804,"Den Haag, Tesselseplein",52.089753,4.257331,0,stoparea:HTM:803,,1,,
HTM:8043,8043,"Zoetermeer, Silverdome",52.05217,4.517657,0,stoparea:HTM:8043,,0,,
HTM:8045,8045,"Zoetermeer, Salomeschouw",52.064729,4.498745,0,stoparea:HTM:8044,,1,,
HTM:805,805,"Den Haag, Tholensestraat",52.0861,4.255965,0,stoparea:HTM:805,,0,,
HTM:806,806,"Den Haag, Tholensestraat",52.086294,4.255624,0,stoparea:HTM:805,,0,,
HTM:807,807,"Den Haag, Nieboerweg",52.090439,4.26229,0,stoparea:HTM:807,,1,,
HTM:808,808,"Den Haag, Nieboerweg",52.090902,4.263694,0,stoparea:HTM:807,,1,,
HTM:809,809,"Den Haag, Markenseplein",52.087791,4.252376,0,stoparea:HTM:802,,1,,
HTM:8101,8101,"Zoetermeer, Voorweg Laag",52.06264,4.471254,0,stoparea:HTM:8101,,1,,
HTM:8102,8102,"Zoetermeer, Voorweg Laag",52.062779,4.470639,0,stoparea:HTM:8101,,1,,
HTM:8103,8103,"Zoetermeer, Centrum-West",52.060597,4.483706,0,stoparea:HTM:8103,,1,,
HTM:8104,8104,"Zoetermeer, Centrum-West",52.060796,4.482681,0,stoparea:HTM:8103,,1,,
HTM:8105,8105,"Zoetermeer, Stadhuis",52.061138,4.493377,0,stoparea:HTM:8105,,1,,
HTM:8106,8106,"Zoetermeer, Stadhuis",52.061054,4.492883,0,stoparea:HTM:8105,,1,,
HTM:8107,8107,"Zoetermeer, Palenstein",52.059676,4.506953,0,stoparea:HTM:8107,,1,,
HTM:8108,8108,"Zoetermeer, Palenstein",52.059699,4.506384,0,stoparea:HTM:8107,,1,,
HTM:8109,8109,"Zoetermeer, Seghwaert",52.063192,4.515561,0,stoparea:HTM:8109,,1,,
HTM:8110,8110,"Zoetermeer, Seghwaert",52.062973,4.515128,0,stoparea:HTM:8109,,1,,
HTM:8111,8111,"Zoetermeer, Leidsewallen",52.069035,4.509628,0,stoparea:HTM:8111,,1,,
HTM:8112,8112,"Zoetermeer, Leidsewallen",52.068941,4.51017,0,stoparea:HTM:8111,,1,,
HTM:8113,8113,"Zoetermeer, De Leyens",52.07205,4.494589,0,stoparea:HTM:8113,,1,,
HTM:8114,8114,"Zoetermeer, De Leyens",52.071883,4.495074,0,stoparea:HTM:8113,,1,,
HTM:8115,8115,"Zoetermeer, Buytenwegh",52.066704,4.478361,0,stoparea:HTM:8115,,1,,
HTM:8116,8116,"Zoetermeer, Buytenwegh",52.066798,4.47887,0,stoparea:HTM:8115,,1,,
HTM:8117,8117,"Zoetermeer, Voorweg Hoog",52.062611,4.471007,0,stoparea:HTM:8117,,1,,
HTM:8118,8118,"Zoetermeer, Voorweg Hoog",52.062927,4.471204,0,stoparea:HTM:8117,,1,,
HTM:8119,8119,"Zoetermeer, Meerzicht",52.055375,4.469857,0,stoparea:HTM:8119,,1,,
HTM:8120,8120,"Zoetermeer, Meerzicht",52.055656,4.470055,0,stoparea:HTM:8119,,1,,
HTM:8121,8121,"Zoetermeer, Driemanspolder",52.048416,4.477624,0,stoparea:HTM:8121,,1,,
HTM:8122,8122,"Zoetermeer, Driemanspolder",52.048483,4.477098,0,stoparea:HTM:8121,,1,,
HTM:8123,8123,"Zoetermeer, Delftsewallen",52.050998,4.487311,0,stoparea:HTM:8123,,1,,
HTM:8124,8124,"Zoetermeer, Delftsewallen",52.050779,4.486936,0,stoparea:HTM:8123,,1,,
HTM:8125,8125,"Zoetermeer, Dorp",52.054387,4.492127,0,stoparea:HTM:8125,,1,,
HTM:8126,8126,"Zoetermeer, Dorp",52.054132,4.491709,0,stoparea:HTM:8125,,1,,
HTM:8127,8127,"Zoetermeer, Centrum-West",52.060565,4.483079,0,stoparea:HTM:8103,,1,,
HTM:8128,8128,"Zoetermeer, Willem Dreeslaan",52.065078,4.53495,0,stoparea:HTM:8128,,1,,
HTM:8129,8129,"Zoetermeer, Willem Dreeslaan",52.065512,4.534125,0,stoparea:HTM:8128,,1,,
HTM:8130,8130,"Zoetermeer, Oosterheem",52.059974,4.542718,0,stoparea:HTM:8130,,1,,
HTM:8131,8131,"Zoetermeer, Oosterheem",52.060638,4.542589,0,stoparea:HTM:8130,,1,,
HTM:8132,8132,"Zoetermeer, Javalaan",52.053719,4.537849,0,stoparea:HTM:8132,,1,,
HTM:8133,8133,"Zoetermeer, Javalaan",52.053474,4.537489,0,stoparea:HTM:8132,,,,
HTM:8134,8134,"Zoetermeer, Centrum-West",52.060565,4.483079,0,stoparea:HTM:8103,,,,
HTM:8201,8201,"Zoetermeer, Rokkeveenseweg Zuid",52.044553,4.500385,0,stoparea:HTM:8042,,1,,
HTM:8202,8202,"Zoetermeer, Mandelabrug",52.04702,4.477288,0,stoparea:HTM:8041,,1,,
HTM:9003,9003,"Delft, Brasserskade",52.023779,4.35155,0,stoparea:HTM:9003,,1,,
HTM:9004,9004,"Delft, Brasserskade",52.02403,4.351427,0,stoparea:HTM:9003,,1,,
HTM:9005,9005,"Delft, Nieuwe Plantage",52.017188,4.352314,0,stoparea:HTM:9005,,1,C,
HTM:9006,9006,"Delft, Nieuwe Plantage",52.017496,4.352583,0,stoparea:HTM:9005,,1,A,
HTM:9007,9007,"Delft, Wateringsevest",52.015151,4.350656,0,stoparea:HTM:9007,,0,,
HTM:9008,9008,"Delft, Wateringsevest",52.015512,4.350823,0,stoparea:HTM:9007,,0,,
HTM:9009,9009,"Delft, Prinsenhof",52.011642,4.35333,0,stoparea:HTM:9009,,1,,
HTM:901,901,"Den Haag, Statenlaan",52.096624,4.271855,0,stoparea:HTM:901,,1,,
HTM:9010,9010,"Delft, Prinsenhof",52.011856,4.353165,0,stoparea:HTM:9009,,1,,
HTM:9013,9013,"Delft, Bankastraat",52.024411,4.354988,0,stoparea:HTM:9013,,1,,
HTM:9017,9017,"Delft, Delft Station",52.005616,4.358057,0,stoparea:HTM:9017,,1,,
HTM:9018,9018,"Delft, Delft Station",52.005822,4.357936,0,stoparea:HTM:9017,,1,,
HTM:902,902,"Den Haag, Statenlaan",52.096414,4.271524,0,stoparea:HTM:901,,1,,
HTM:9027,9027,"Delft, Nieuwe Plantage",52.017315,4.352456,0,stoparea:HTM:9005,,0,B,
HTM:903,903,"Den Haag, Van Boetzelaerlaan",52.095198,4.272153,0,stoparea:HTM:903,,1,,
HTM:904,904,"Den Haag, Scheveningseweg",52.099178,4.281541,0,stoparea:HTM:904,,1,,
HTM:905,905,"Den Haag, Scheveningseweg",52.09897,4.281341,0,stoparea:HTM:904,,1,,
HTM:906,906,"Den Haag, Frankenslag",52.100386,4.280942,0,stoparea:HTM:906,,1,,
HTM:907,907,"Den Haag, Frankenslag",52.099515,4.281956,0,stoparea:HTM:906,,1,,
HTM:909,909,"Den Haag, Prins Mauritslaan",52.095571,4.276405,0,stoparea:HTM:909,,1,,
HTM:910,910,"Den Haag, Prins Mauritsplein",52.095478,4.278027,0,stoparea:HTM:910,,1,,
HTM:9101,9101,"Delft, Krakeelpolderweg",52.002503,4.353585,0,stoparea:HTM:9101,,0,,
HTM:9102,9102,"Delft, Krakeelpolderweg",52.002642,4.354062,0,stoparea:HTM:9101,,0,,
HTM:9103,9103,"Delft, Hovenpassage",51.998881,4.354761,0,stoparea:HTM:9103,,1,,
HTM:9104,9104,"Delft, Hovenpassage",51.999285,4.354708,0,stoparea:HTM:9103,,1,,
HTM:9107,9107,"Delft, Diepenbrockstraat",51.995114,4.344436,0,stoparea:HTM:9107,,1,,
HTM:9108,9108,"Delft, Diepenbrockstraat",51.995015,4.344467,0,stoparea:HTM:9107,,1,,
HTM:9109,9109,"Delft, Van der Slootsingel",51.989604,4.344462,0,stoparea:HTM:9109,,1,,
HTM:911,911,"Den Haag, Prins Mauritsplein",52.095488,4.278115,0,stoparea:HTM:910,,1,,
HTM:9110,9110,"Delft, Van der Slootsingel",51.99044,4.344501,0,stoparea:HTM:9109,,1,,
HTM:9111,9111,"Delft, Sadatweg",51.984453,4.343432,0,stoparea:HTM:9111,,1,,
HTM:9112,9112,"Delft, Sadatweg",51.984493,4.343853,0,stoparea:HTM:9111,,1,,
HTM:9113,9113,"Delft, Bikolaan",51.980566,4.341906,0,stoparea:HTM:9113,,1,,
HTM:9114,9114,"Delft, Bikolaan",51.981274,4.341672,0,stoparea:HTM:9113,,1,,
HTM:9115,9115,"Delft, Abtswoudsepark",51.980738,4.350272,0,stoparea:HTM:9115,,1,,
HTM:9116,9116,"Delft, Abtswoudsepark keerlus",51.980989,4.35114,0,stoparea:HTM:9116,,,,
HTM:9117,9117,"Delft, Abtswoudsepark",51.980708,4.349851,0,stoparea:HTM:9115,,0,,
HTM:9118,9118,"Delft, Jan Campertlaan",51.992282,4.356601,0,stoparea:HTM:9118,,1,,
HTM:9119,9119,"Delft, Diepenbrockstraat",51.994872,4.344573,0,stoparea:HTM:9107,,,,
HTM:9120,9120,"Delft, Westlandseweg",52.001535,4.342757,0,stoparea:HTM:9120,,1,,
HTM:9121,9121,"Den Hoorn, Hof van Delftstraat",51.999409,4.329191,0,stoparea:HTM:9121,,1,,
HTM:913,913,"Den Haag, Willem de Zwijgerlaan",52.091171,4.271159,0,stoparea:HTM:913,,,,
HTM:9136,9136,"Delft, Martinus Nijhofflaan",51.996284,4.349665,0,stoparea:HTM:9136,,1,,
HTM:9137,9137,"Delft, Martinus Nijhofflaan",51.996484,4.350942,0,stoparea:HTM:9136,,1,,
HTM:914,914,"Den Haag, Willem de Zwijgerlaan",52.091476,4.271137,0,stoparea:HTM:913,,1,,
HTM:915,915,"Den Haag, Frederik Hendriklaan",52.092848,4.275568,0,stoparea:HTM:915,,0,,
HTM:916,916,"Den Haag, Frederik Hendriklaan",52.092585,4.276217,0,stoparea:HTM:915,,1,,
HTM:917,917,"Den Haag, Willem de Zwijgerlaan",52.090784,4.275006,0,stoparea:HTM:917,,1,,
HTM:918,918,"Den Haag, Willem de Zwijgerlaan",52.090518,4.274386,0,stoparea:HTM:917,,1,,
HTM:919,919,"Den Haag, World Forum",52.093444,4.280661,0,stoparea:HTM:919,,1,,
HTM:920,920,"Den Haag, World Forum",52.093615,4.280671,0,stoparea:HTM:919,,1,,
HTM:921,921,"Den Haag, World Forum",52.096308,4.285975,0,stoparea:HTM:921,,1,,
HTM:922,922,"Den Haag, World Forum",52.096103,4.28617,0,stoparea:HTM:921,,1,,
HTM:923,923,"Den Haag, Boreelstraat",52.088385,4.272191,0,stoparea:HTM:923,,,,
HTM:924,924,"Den Haag, Boreelstraat",52.088323,4.272281,0,stoparea:HTM:923,,1,,
HTM:925,925,"Den Haag, Statenplein",52.091283,4.278292,0,stoparea:HTM:925,,1,,
HTM:926,926,"Den Haag, Statenplein",52.091533,4.278169,0,stoparea:HTM:925,,1,,
HTM:927,927,"Den Haag, Statenplein",52.090685,4.277781,0,stoparea:HTM:927,,1,,
HTM:928,928,"Den Haag, Statenplein",52.090833,4.279208,0,stoparea:HTM:927,,1,,
HTM:930,930,"Den Haag, Aert van der Goesstraat",52.087573,4.277596,0,stoparea:HTM:930,,1,,
HTM:932,932,"Den Haag, Van Boetzelaerlaan",52.086047,4.274044,0,stoparea:HTM:932,,1,,
HTM:934,934,"Den Haag, Doornstraat",52.098171,4.273772,0,stoparea:HTM:934,,1,,
HTM:935,935,"Den Haag, Doornstraat",52.098335,4.274074,0,stoparea:HTM:934,,1,,
HTM:940,940,"Den Haag, Van Boetzelaerlaan",52.09543,4.271928,0,stoparea:HTM:940,,0,,
HTM:941,941,"Den Haag, Frankenslag",52.094085,4.273261,0,stoparea:HTM:941,,1,,
HTM:9501,9501,"Leidschendam, Leidsenhage",52.090755,4.38184,0,stoparea:HTM:9501,,1,,
HTM:9502,9502,"Leidschendam, Leidsenhage",52.090876,4.382216,0,stoparea:HTM:9501,,1,,
HTM:9503,9503,"Leidschendam, Burgemeester Kolfschotenlaan",52.094525,4.38857,0,stoparea:HTM:9503,,1,,
HTM:9504,9504,"Leidschendam, Burgemeester Kolfschotenlaan",52.095055,4.389536,0,stoparea:HTM:9503,,1,,
HTM:9505,9505,"Leidschendam, Kastelenring",52.097577,4.394471,0,stoparea:HTM:9505,,1,,
HTM:9506,9506,"Leidschendam, Kastelenring",52.098045,4.395628,0,stoparea:HTM:9505,,1,,
HTM:9507,9507,"Leidschendam, Dillenburgsingel",52.100204,4.400105,0,stoparea:HTM:9507,,1,,
HTM:9508,9508,"Leidschendam, Dillenburgsingel",52.100061,4.40021,0,stoparea:HTM:9507,,1,,
HTM:9509,9509,"Leidschendam, MCH Antoniushove",52.09252,4.382208,0,stoparea:HTM:9509,,1,,
HTM:9515,9515,"Leidschendam, Prins Bernhardlaan",52.089953,4.39645,0,stoparea:HTM:9515,,0,,
HTM:9519,9519,"Leidschendam, Damlaan",52.08381,4.393814,0,stoparea:HTM:9519,,1,,
HTM:9531,9531,"Leidschendam, Dillenburgsingel",52.099666,4.399212,0,stoparea:HTM:9507,,,,
HTM:9548,9548,"Den Haag, Rotonde Houtkade",52.05912,4.416687,0,stoparea:HTM:9549,,1,,
HTM:9573,9573,"Leidschendam, MCH Antoniushove",52.090629,4.381784,0,stoparea:HTM:9573,,0,,
HTM:9576,9576,"Leidschendam, Dillenburgsingel",52.099916,4.400068,0,stoparea:HTM:9576,,0,,
HTM:9579,9579,"Den Haag, Eendenplein",52.065791,4.410286,0,stoparea:HTM:9579,,1,,
HTM:9580,9580,"Leidschendam, Weigelia",52.089028,4.381616,0,stoparea:HTM:1526,,1,,
HTM:9581,9581,"Leidschendam, Weigelia",52.088404,4.382286,0,stoparea:HTM:1526,,1,,
HTM:9582,9582,"Voorburg, Oosteinde",52.07906,4.38696,0,stoparea:HTM:1528,,1,,
HTM:9583,9583,"Voorburg, Oosteinde",52.079345,4.386633,0,stoparea:HTM:1528,,1,,
HTM:9584,9584,"Den Haag, Oude Middenweg",52.071818,4.401125,0,stoparea:HTM:1530,,1,,
HTM:9585,9585,"Den Haag, Oude Middenweg",52.072058,4.400843,0,stoparea:HTM:1530,,1,,
HTM:9586,9586,"Den Haag, Klaverveld",52.068789,4.405495,0,stoparea:HTM:1532,,1,,
HTM:9587,9587,"Den Haag, Klaverveld",52.069011,4.405227,0,stoparea:HTM:1532,,1,,
HTM:9588,9588,"Den Haag, Leidschenveen Centrum",52.064772,4.400201,0,stoparea:HTM:1534,,1,,
HTM:9589,9589,"Den Haag, Leidschenveen Centrum",52.064854,4.400404,0,stoparea:HTM:1534,,1,,
HTM:9590,9590,"Den Haag, Lanen",52.060476,4.394959,0,stoparea:HTM:1536,,1,,
HTM:9591,9591,"Den Haag, Lanen",52.060613,4.395204,0,stoparea:HTM:9591,,1,,
HTM:9592,9592,"Den Haag, Leidschenveen Centrum",52.064945,4.400518,0,stoparea:HTM:9589,,1,,
HTM:9594,9594,"Den Haag, Forepark",52.070004,4.392764,0,stoparea:HTM:9594,,1,,
HTM:9595,9595,"Den Haag, Forepark",52.070315,4.392392,0,stoparea:HTM:9594,,1,,
HTM:9596,9596,"Den Haag, Leidschenveen",52.064762,4.400143,0,stoparea:HTM:9596,,1,,
HTM:9597,9597,"Den Haag, Leidschenveen",52.065235,4.399754,0,stoparea:HTM:9596,,1,,
HTM:9807,9807,"Den Haag, Weidevogellaan",52.051366,4.384824,0,stoparea:HTM:9807,,1,,
HTM:9808,9808,"Den Haag, Weidevogellaan",52.051626,4.38473,0,stoparea:HTM:9807,,1,,
HTM:9809,9809,"Den Haag, Weidevogellaan",52.050728,4.384925,0,stoparea:HTM:9807,,,,
HTM:9810,9810,"Den Haag, Scholekstersingel",52.044875,4.377301,0,stoparea:HTM:9810,,1,,
HTM:9811,9811,"Den Haag, Scholekstersingel",52.04441,4.376539,0,stoparea:HTM:9810,,1,,
HTM:9812,9812,"Den Haag, Gruttosingel",52.048872,4.38332,0,stoparea:HTM:9812,,1,,
HTM:9813,9813,"Den Haag, Gruttosingel",52.048425,4.382572,0,stoparea:HTM:9812,,1,,
HTM:9815,9815,"Nootdorp, Nootdorp Centrum",52.045597,4.392475,0,stoparea:HTM:9814,,1,,
HTM:9831,9831,"Den Haag, Nootdorp Centrum",52.045512,4.394182,0,stoparea:HTM:9831,,0,,
HTM:9840,9840,"Den Haag, Station Ypenburg",52.055509,4.388989,0,stoparea:HTM:1538,,0,,
HTM:9841,9841,"Den Haag, Station Ypenburg",52.055336,4.388745,0,stoparea:HTM:1538,,0,,
stoparea:HTM:1001,,"Den Haag, Adriaan Goekooplaan",52.0932815,4.289684,1,,,0,,
stoparea:HTM:101,,"Den Haag, Oude Waalsdorperweg",52.109249,4.326883,1,,,0,,
stoparea:HTM:1101,,"Den Haag, Houtrust",52.085667,4.2737325,1,,,0,,
stoparea:HTM:1103,,"Den Haag, Cornelis de Wittlaan",52.0874285,4.2780085,1,,,0,,
stoparea:HTM:1106,,"Den Haag, Gemeentemuseum/Museon",52.0883845,4.2797865,1,,,0,,
stoparea:HTM:1108,,"Den Haag, Groot Hertoginnelaan",52.0824905,4.2772185,1,,,0,,
stoparea:HTM:1110,,"Den Haag, Conradkade",52.0821505,4.2769065,1,,,0,,
stoparea:HTM:1112,,"Den Haag, Valeriusstraat",52.0840075,4.279355,1,,,0,,
stoparea:HTM:1114,,"Den Haag, Groot Hertoginnelaan",52.0852126666667,4.28307733333333,1,,,0,,
stoparea:HTM:1117,,"Den Haag, Banstraat",52.0852505,4.2873345,1,,,0,,
stoparea:HTM:1119,,"Den Haag, Conradkade",52.080557,4.282876,1,,,0,,
stoparea:HTM:1121,,"Den Haag, Van Speijkstraat",52.0813625,4.288225,1,,,0,,
stoparea:HTM:1123,,"Den Haag, Laan van Meerdervoort",52.0849755,4.2920545,1,,,0,,
stoparea:HTM:1128,,"Den Haag, Conradkade",52.0804635,4.28247,1,,,0,,
stoparea:HTM:1201,,"Den Haag, Kwartellaan",52.0781395,4.254948,1,,,0,,
stoparea:HTM:1203,,"Den Haag, Nieboerweg",52.080312,4.260269,1,,,0,,
stoparea:HTM:1205,,"Den Haag, Sportlaan",52.080316,4.2602395,1,,,0,,
stoparea:HTM:1207,,"Den Haag, Haga Ziekenhuis",52.082203,4.264839,1,,,0,,
stoparea:HTM:1209,,"Den Haag, Houtrustweg",52.085135,4.272615,1,,,0,,
stoparea:HTM:1211,,"Den Haag, Goudenregenplein",52.076558,4.263945,1,,,0,,
stoparea:HTM:1213,,"Den Haag, Zonnebloemstraat",52.0712135,4.2563335,1,,,0,,
stoparea:HTM:1217,,"Den Haag, Azaleaplein",52.0731965,4.2616445,1,,,0,,
stoparea:HTM:1301,,"Den Haag, Doctor van Welylaan",52.0847335,4.2578665,1,,,0,,
stoparea:HTM:1303,,"Den Haag, Kruisbeklaan",52.0731325,4.242785,1,,,0,,
stoparea:HTM:1305,,"Den Haag, Oude Buizerdlaan",52.0743935,4.2458815,1,,,0,,
stoparea:HTM:1307,,"Den Haag, Vliegenvangerlaan",52.075977,4.2497365,1,,,0,,
stoparea:HTM:1403,,"Den Haag, Muurbloemweg",52.0682595,4.232153,1,,,0,,
stoparea:HTM:1405,,"Den Haag, Arabislaan",52.069712,4.236316,1,,,0,,
stoparea:HTM:1407,,"Den Haag, De Savornin Lohmanlaan",52.071373,4.240314,1,,,0,,
stoparea:HTM:1411,,"Den Haag, Aronskelkweg",52.066846,4.235573,1,,,0,,
stoparea:HTM:1415,,"Den Haag, Muurbloemweg",52.063907,4.234679,1,,,0,,
stoparea:HTM:1417,,"Den Haag, Lobelialaan",52.064988,4.2372545,1,,,0,,
stoparea:HTM:1419,,"Den Haag, De Savornin Lohmanplein",52.0673835,4.245324,1,,,0,,
stoparea:HTM:1421,,"Den Haag, Hoefbladlaan",52.065444,4.2399625,1,,,0,,
stoparea:HTM:1425,,"Den Haag, Teunisbloemplein",52.063173,4.226283,1,,,0,,
stoparea:HTM:1427,,"Den Haag, De Savornin Lohmanplein",52.068107,4.247887,1,,,0,,
stoparea:HTM:1502,,"Den Haag, Kijkduin",52.066459,4.218161,1,,,0,,
stoparea:HTM:1504,,"Den Haag, Kijkduin Strand",52.068881,4.221351,1,,,0,,
stoparea:HTM:1508,,"Den Haag, Kijkduinsestraat",52.066491,4.224177,1,,,0,,
stoparea:HTM:1516,,"Den Haag, Kijkduinsestraat",52.065592,4.224178,1,,,0,,
stoparea:HTM:1518,,"Den Haag, Gemeentemuseum/Museon",52.0888415,4.279651,1,,,0,,
stoparea:HTM:1520,,"Den Haag, Station Moerwijk",52.054629,4.3075815,1,,,0,,
stoparea:HTM:1522,,"Den Haag, Ypenburg Centrum",52.0393285,4.368943,1,,,0,,
stoparea:HTM:1524,,"Den Haag, Anthony Fokkersingel",52.035626,4.3633945,1,,,0,,
stoparea:HTM:1526,,"Leidschendam, Weigelia",52.088716,4.381951,1,,,0,,
stoparea:HTM:1528,,"Voorburg, Oosteinde",52.0792025,4.3867965,1,,,0,,
stoparea:HTM:1530,,"Den Haag, Oude Middenweg",52.071938,4.400984,1,,,0,,
stoparea:HTM:1532,,"Den Haag, Klaverveld",52.0689,4.405361,1,,,0,,
stoparea:HTM:1534,,"Den Haag, Leidschenveen Centrum",52.064813,4.4003025,1,,,0,,
stoparea:HTM:1536,,"Den Haag, Lanen",52.0605445,4.3950815,1,,,0,,
stoparea:HTM:1538,,"Den Haag, Station Ypenburg",52.0554225,4.388867,1,,,0,,
stoparea:HTM:1601,,"Den Haag, Kraayensteinlaan",52.048928,4.23618,1,,,0,,
stoparea:HTM:1671,,"Den Haag, Kraayensteinlaan",52.048856,4.238026,1,,,0,,
stoparea:HTM:1677,,"Den Haag, Forellendaal",52.045518,4.240459,1,,,0,,
stoparea:HTM:1701,,"Den Haag, Gemaal",52.054229,4.268522,1,,,0,,
stoparea:HTM:1707,,"Den Haag, Loosduinse Hoofdstraat",52.0539545,4.2391195,1,,,0,,
stoparea:HTM:1709,,"Den Haag, Burgemeester Hovylaan",52.0553095,4.241666,1,,,0,,
stoparea:HTM:1711,,"Den Haag, Kapelaan Meereboerweg",52.050585,4.2383385,1,,,0,,
stoparea:HTM:1715,,"Den Haag, Houtwijklaan",52.0560405,4.251249,1,,,0,,
stoparea:HTM:1717,,"Den Haag, Dedemsvaartweg",52.0548025,4.2579805,1,,,0,,
stoparea:HTM:1719,,"Den Haag, Albert Schweitzerlaan",52.0571905,4.2618935,1,,,0,,
stoparea:HTM:1772,,"Den Haag, Zichtenburglaan",52.048914,4.249571,1,,,0,,
stoparea:HTM:1801,,"Den Haag, Heliotrooplaan",52.0627025,4.2310275,1,,,0,,
stoparea:HTM:1805,,"Den Haag, Pisuissestraat",52.057274,4.227938,1,,,0,,
stoparea:HTM:1808,,"Den Haag, Groen van Prinstererlaan",52.061305,4.2471925,1,,,0,,
stoparea:HTM:1810,,"Den Haag, Buitentuinen",52.0566845,4.2462315,1,,,0,,
stoparea:HTM:1812,,"Den Haag, Mozartlaan",52.059761,4.232175,1,,,0,,
stoparea:HTM:1817,,"Den Haag, Arnold Spoelplein",52.05464,4.232891,1,,,0,,
stoparea:HTM:1820,,"Den Haag, Arnold Spoelplein",52.054354,4.2340205,1,,,0,,
stoparea:HTM:1822,,"Den Haag, Louis Armstrongplein",52.0551305,4.238492,1,,,0,,
stoparea:HTM:1824,,"Den Haag, Buitentuinen",52.0565865,4.245884,1,,,0,,
stoparea:HTM:1828,,"Den Haag, Binnentuinen",52.059388,4.247883,1,,,0,,
stoparea:HTM:1834,,"Den Haag, Pisuissestraat",52.057328,4.227922,1,,,0,,
stoparea:HTM:1872,,"Den Haag, Westduin",52.0584315,4.226333,1,,,0,,
stoparea:HTM:1903,,"Den Haag, Appelstraat",52.069365,4.2515235,1,,,0,,
stoparea:HTM:1907,,"Den Haag, Colijnplein",52.0665665,4.24797,1,,,0,,
stoparea:HTM:1911,,"Den Haag, Appelstraat",52.064614,4.252891,1,,,0,,
stoparea:HTM:1913,,"Den Haag, Thorbeckelaan",52.0645555,4.252878,1,,,0,,
stoparea:HTM:1915,,"Den Haag, Perenstraat",52.0673065,4.2585835,1,,,0,,
stoparea:HTM:1917,,"Den Haag, Laan van Eik en Duinen",52.0690005,4.2632085,1,,,0,,
stoparea:HTM:1919,,"Den Haag, Walnootstraat",52.060358,4.2547635,1,,,0,,
stoparea:HTM:1921,,"Den Haag, Thorbeckelaan",52.0629135,4.2602185,1,,,0,,
stoparea:HTM:1923,,"Den Haag, Okkernootstraat",52.063611,4.257481,1,,,0,,
stoparea:HTM:2002,,"Den Haag, Goudenregenstraat",52.074448,4.265114,1,,,0,,
stoparea:HTM:2003,,"Den Haag, Goudenregenstraat",52.075119,4.267147,1,,,0,,
stoparea:HTM:2005,,"Den Haag, Fahrenheitstraat",52.0764525,4.270833,1,,,0,,
stoparea:HTM:2007,,"Den Haag, Fahrenheitstraat",52.076465,4.2721675,1,,,0,,
stoparea:HTM:201,,"Den Haag, Kurhaus",52.1131146666667,4.28352666666667,1,,,0,,
stoparea:HTM:2010,,"Den Haag, Valkenbosplein",52.0784335,4.2763565,1,,,0,,
stoparea:HTM:2012,,"Den Haag, Valkenbosplein",52.0785085,4.2767195,1,,,0,,
stoparea:HTM:2015,,"Den Haag, Copernicusplein",52.0760095,4.27525,1,,,0,,
stoparea:HTM:2017,,"Den Haag, Copernicusplein",52.0759875,4.2753305,1,,,0,,
stoparea:HTM:2019,,"Den Haag, Kamperfoeliestraat",52.070662,4.269643,1,,,0,,
stoparea:HTM:2021,,"Den Haag, Weimarstraat",52.072802,4.275417,1,,,0,,
stoparea:HTM:205,,"Den Haag, Kurhausweg",52.112026,4.283749,1,,,0,,
stoparea:HTM:206,,"Den Haag, Kurhaus",52.112267,4.282575,1,,,0,,
stoparea:HTM:207,,"Den Haag, Zwarte Pad",52.1164826666667,4.28929866666667,1,,,0,,
stoparea:HTM:208,,"Den Haag, Zwarte Pad",52.116684,4.288773,1,,,0,,
stoparea:HTM:2101,,"Den Haag, Laan van Meerdervoort",52.0806955,4.283741,1,,,0,,
stoparea:HTM:2103,,"Den Haag, Weimarstraat",52.075564,4.2799945,1,,,0,,
stoparea:HTM:2105,,"Den Haag, Weimarstraat",52.0787365,4.2866415,1,,,0,,
stoparea:HTM:2107,,"Den Haag, Cartesiusstraat",52.0737095,4.2815645,1,,,0,,
stoparea:HTM:217,,"Den Haag, Harstenhoekplein",52.112149,4.2872785,1,,,0,,
stoparea:HTM:219,,"Den Haag, Stevinstraat",52.109673,4.28708775,1,,,0,,
stoparea:HTM:2201,,"Den Haag, Waldeck Pyrmontkade",52.081983,4.2882685,1,,,0,,
stoparea:HTM:221,,"Den Haag, Gentsestraat",52.110611,4.290557,1,,,0,,
stoparea:HTM:2210,,"Den Haag, Van Speijkstraat",52.0831665,4.2937325,1,,,0,,
stoparea:HTM:2212,,"Den Haag, Elandstraat",52.0782295,4.292548,1,,,0,,
stoparea:HTM:2216,,"Den Haag, Elandstraat",52.0804625,4.297271,1,,,0,,
stoparea:HTM:2220,,"Den Haag, Prins Hendrikstraat",52.080219,4.28999,1,,,0,,
stoparea:HTM:223,,"Den Haag, Duinkerksestraat",52.1112965,4.2961465,1,,,0,,
stoparea:HTM:225,,"Den Haag, Doorniksestraat",52.1095875,4.297466,1,,,0,,
stoparea:HTM:227,,"Den Haag, Pompstationsweg",52.107026,4.300944,1,,,0,,
stoparea:HTM:2301,,"Den Haag, Javastraat",52.0876276666667,4.30408833333333,1,,,0,,
stoparea:HTM:2307,,"Den Haag, Mauritskade",52.0846653333333,4.30647,1,,,0,,
stoparea:HTM:2309,,"Den Haag, Dr. Kuyperstraat",52.0873305,4.3140665,1,,,0,,
stoparea:HTM:2401,,"Den Haag, Malieveld",52.08428325,4.316992,1,,,0,,
stoparea:HTM:2501,,"Den Haag, Overbosch",52.090903,4.34758,1,,,0,,
stoparea:HTM:2503,,"Den Haag, Reigersbergenweg",52.0923985,4.3515,1,,,0,,
stoparea:HTM:2505,,"Den Haag, Barnsteenhorst",52.094353,4.356059,1,,,0,,
stoparea:HTM:2507,,"Den Haag, Saffierhorst",52.0965125,4.360424,1,,,0,,
stoparea:HTM:2509,,"Den Haag, Carel Reinierszkade",52.0869575,4.348139,1,,,0,,
stoparea:HTM:2513,,"Den Haag, Reigersbergenweg",52.089402,4.353189,1,,,0,,
stoparea:HTM:2515,,"Den Haag, Vlamenburg",52.091859,4.3581815,1,,,0,,
stoparea:HTM:2517,,"Den Haag, Hofzichtlaan",52.093966,4.3627155,1,,,0,,
stoparea:HTM:2519,,"Den Haag, Het Kleine Loo",52.094763,4.362916,1,,,0,,
stoparea:HTM:2521,,"Den Haag, Margarethaland",52.0918265,4.36554825,1,,,0,,
stoparea:HTM:2525,,"Den Haag, Station Mariahoeve",52.091103,4.368873,1,,,0,,
stoparea:HTM:2531,,"Den Haag, Reigersbergenweg",52.089449,4.353473,1,,,0,,
stoparea:HTM:2532,,"Den Haag, Aegonplein",52.090449,4.3671445,1,,,0,,
stoparea:HTM:2601,,"Den Haag, Centraal Station",52.080748,4.32316,1,,,0,,
stoparea:HTM:2605,,"Den Haag, Centraal Station",52.0812002,4.3244494,1,,,0,,
stoparea:HTM:2609,,"Den Haag, Centraal Station",52.0803962857143,4.32498285714286,1,,,0,,
stoparea:HTM:2631,,"Den Haag, Prins Clauslaan",52.0830995,4.3302465,1,,,0,,
stoparea:HTM:2633,,"Den Haag, Koningin Marialaan",52.0844785,4.333175,1,,,0,,
stoparea:HTM:2635,,"Den Haag, Laan van Nieuw Oost Indië",52.085781,4.336114,1,,,0,,
stoparea:HTM:2637,,"Den Haag, Theresiastraat",52.0862305,4.3370885,1,,,0,,
stoparea:HTM:2639,,"Den Haag, Spaarwaterstraat",52.0875915,4.3400405,1,,,0,,
stoparea:HTM:2641,,"Den Haag, De Eerensplein",52.089238,4.3442555,1,,,0,,
stoparea:HTM:2645,,"Den Haag, Ternoot",52.0821355,4.3329825,1,,,0,,
stoparea:HTM:2647,,"Den Haag, Oostinje",52.0838895,4.338675,1,,,0,,
stoparea:HTM:2649,,"Den Haag, Juliana van Stolberglaan",52.0843355,4.3392925,1,,,0,,
stoparea:HTM:2651,,"Den Haag, Stuyvesantplein",52.084502,4.3428195,1,,,0,,
stoparea:HTM:2655,,"Den Haag, Stuyvesantstraat",52.0817375,4.342315,1,,,0,,
stoparea:HTM:2658,,"Den Haag, Station Laan van NOI",52.0792865,4.3451655,1,,,0,,
stoparea:HTM:2662,,"Den Haag, Beatrixkwartier",52.0800265,4.334885,1,,,0,,
stoparea:HTM:2665,,"Den Haag, Stuyvesantplein",52.084314,4.342955,1,,,0,,
stoparea:HTM:2682,,"Den Haag, Laan van NOI",52.0788485,4.342411,1,,,0,,
stoparea:HTM:2698,,"Den Haag, Station Laan van NOI",52.079775,4.343995,1,,,0,,
stoparea:HTM:2705,,"Den Haag, Rijswijkseplein/Station HS",52.0717175,4.324498,1,,,0,,
stoparea:HTM:2707,,"Den Haag, Rijswijkseplein",52.073176,4.3247185,1,,,0,,
stoparea:HTM:2711,,"Den Haag, Weteringplein",52.075234,4.3281855,1,,,0,,
stoparea:HTM:2713,,"Den Haag, Weteringkade",52.0745975,4.3298635,1,,,0,,
stoparea:HTM:2715,,"Den Haag, Rijswijkseplein",52.0723856666667,4.32349766666667,1,,,0,,
stoparea:HTM:2719,,"Den Haag, Station Hollands Spoor",52.0702773333333,4.32177066666667,1,,,0,,
stoparea:HTM:2734,,"Den Haag, Bierkade",52.0748285,4.3211055,1,,,0,,
stoparea:HTM:2801,,"Den Haag, Noordwal",52.079743,4.302665,1,,,0,,
stoparea:HTM:2803,,"Den Haag, Kneuterdijk",52.080681,4.309353,1,,,0,,
stoparea:HTM:2805,,"Den Haag, Buitenhof",52.0803685,4.3105495,1,,,0,,
stoparea:HTM:2812,,"Den Haag, Korte Voorhout",52.082948,4.3169,1,,,0,,
stoparea:HTM:2818,,"Den Haag, Gravenstraat",52.078064,4.3091895,1,,,0,,
stoparea:HTM:2820,,"Den Haag, MCH Westeinde",52.0729675,4.2993935,1,,,0,,
stoparea:HTM:2821,,"Den Haag, Brouwersgracht",52.073527,4.3035375,1,,,0,,
stoparea:HTM:2823,,"Den Haag, Brouwersgracht",52.0737485,4.304181,1,,,0,,
stoparea:HTM:2825,,"Den Haag, Brouwersgracht",52.073379,4.305569,1,,,0,,
stoparea:HTM:2828,,"Den Haag, Grote Markt",52.07496,4.307361,1,,,0,,
stoparea:HTM:2832,,"Den Haag, Centrum",52.078034,4.314253,1,,,0,,
stoparea:HTM:2851,,"Den Haag, Bierkade",52.075497,4.319011,1,,,0,,
stoparea:HTM:2857,,"Den Haag, Nieuwe Haven",52.0767215,4.319244,1,,,0,,
stoparea:HTM:2862,,"Den Haag, Kalvermarkt-Stadhuis",52.0780535,4.316455,1,,,0,,
stoparea:HTM:2864,,"Den Haag, Buitenhof",52.078778,4.31177233333333,1,,,0,,
stoparea:HTM:2873,,"Den Haag, Kneuterdijk",52.081381,4.3092485,1,,,0,,
stoparea:HTM:2880,,"Den Haag, Spui",52.0772645,4.3141695,1,,,0,,
stoparea:HTM:2882,,"Den Haag, Grote Markt",52.075392,4.308919,1,,,0,,
stoparea:HTM:2901,,"Den Haag, Loosduinseweg",52.0731605,4.291636,1,,,0,,
stoparea:HTM:2903,,"Den Haag, Monstersestraat",52.0730315,4.292726,1,,,0,,
stoparea:HTM:2908,,"Den Haag, Delftselaan",52.0687583333333,4.29477766666667,1,,,0,,
stoparea:HTM:2909,,"Den Haag, Vaillantplein",52.0695935,4.30003,1,,,0,,
stoparea:HTM:2911,,"Den Haag, Hobbemaplein",52.067044,4.2979695,1,,,0,,
stoparea:HTM:2913,,"Den Haag, Hobbemaplein",52.066657,4.29647,1,,,0,,
stoparea:HTM:2915,,"Den Haag, Vaillantlaan",52.068805,4.30274,1,,,0,,
stoparea:HTM:2917,,"Den Haag, Om en Bij",52.070283,4.307073,1,,,0,,
stoparea:HTM:2919,,"Den Haag, Hoefkade",52.063113,4.301055,1,,,0,,
stoparea:HTM:2921,,"Den Haag, Wouwermanstraat",52.0614365,4.30889775,1,,,0,,
stoparea:HTM:2925,,"Den Haag, Jacob Catsstraat",52.065989,4.3147535,1,,,0,,
stoparea:HTM:2931,,"Den Haag, Hobbemaplein",52.0662805,4.298025,1,,,0,,
stoparea:HTM:2936,,"Den Haag, Monstersestraat",52.070764,4.292978,1,,,0,,
stoparea:HTM:3001,,"Den Haag, Loosduinseweg",52.0708595,4.284932,1,,,0,,
stoparea:HTM:3003,,"Den Haag, De la Reyweg",52.071061,4.2858095,1,,,0,,
stoparea:HTM:3005,,"Den Haag, Paul Krugerplein",52.06867525,4.289744,1,,,0,,
stoparea:HTM:3009,,"Den Haag, Schalk Burgerstraat",52.064928,4.2927275,1,,,0,,
stoparea:HTM:301,,"Den Haag, Cremerweg",52.105648,4.294307,1,,,0,,
stoparea:HTM:303,,"Den Haag, Wagenaarweg",52.101658,4.2973235,1,,,0,,
stoparea:HTM:305,,"Den Haag, Badhuisweg",52.102961,4.30116,1,,,0,,
stoparea:HTM:309,,"Den Haag, Maurits de Brauwweg",52.1090685,4.3075225,1,,,0,,
stoparea:HTM:3101,,"Den Haag, Kamperfoeliestraat",52.066894,4.2708965,1,,,0,,
stoparea:HTM:3103,,"Den Haag, Valkenboslaan",52.068617,4.2763375,1,,,0,,
stoparea:HTM:3107,,"Den Haag, Fahrenheitstraat",52.069502,4.279641,1,,,0,,
stoparea:HTM:3109,,"Den Haag, Tienhovenselaan",52.0646605,4.2770995,1,,,0,,
stoparea:HTM:311,,"Den Haag, Plesmanweg",52.1005225,4.3013725,1,,,0,,
stoparea:HTM:3115,,"Den Haag, Nunspeetlaan",52.0666705,4.284896,1,,,0,,
stoparea:HTM:3119,,"Den Haag, Soestdijkseplein",52.0620945,4.2838715,1,,,0,,
stoparea:HTM:3121,,"Den Haag, De la Reyweg",52.0635,4.288956,1,,,0,,
stoparea:HTM:3125,,"Den Haag, Barneveldstraat",52.061806,4.2909805,1,,,0,,
stoparea:HTM:3129,,"Den Haag, Dierenselaan",52.0668405,4.281946,1,,,0,,
stoparea:HTM:3201,,"Den Haag, Volendamlaan",52.0622225,4.260382,1,,,0,,
stoparea:HTM:3203,,"Den Haag, Nieuwendamlaan",52.063871,4.2625935,1,,,0,,
stoparea:HTM:3205,,"Den Haag, Laan van Eik en Duinen",52.065459,4.266513,1,,,0,,
stoparea:HTM:3209,,"Den Haag, Escamplaan",52.059382,4.2636105,1,,,0,,
stoparea:HTM:3213,,"Den Haag, Monnickendamplein",52.0621035,4.270491,1,,,0,,
stoparea:HTM:3215,,"Den Haag, Leyenburg",52.056831,4.2661975,1,,,0,,
stoparea:HTM:3217,,"Den Haag, Leyenburg",52.057431,4.265497,1,,,0,,
stoparea:HTM:3219,,"Den Haag, Zuiderpark",52.059385,4.2791335,1,,,0,,
stoparea:HTM:3225,,"Den Haag, Volendamlaan",52.063128,4.261023,1,,,0,,
stoparea:HTM:3227,,"Den Haag, Leyenburg",52.0565025,4.266599,1,,,0,,
stoparea:HTM:3302,,"Den Haag, Drapeniersgaarde",52.038588,4.268534,1,,,0,,
stoparea:HTM:3305,,"Den Haag, Beresteinlaan",52.042461,4.2496475,1,,,0,,
stoparea:HTM:3309,,"Den Haag, Bouwlustlaan",52.045966,4.2551855,1,,,0,,
stoparea:HTM:3311,,"Den Haag, De Rade",52.047947,4.258314,1,,,0,,
stoparea:HTM:3313,,"Den Haag, De Stede",52.041999,4.263762,1,,,0,,
stoparea:HTM:3318,,"Den Haag, Beresteinlaan",52.040842,4.2560515,1,,,0,,
stoparea:HTM:3320,,"Den Haag, Vrederustlaan",52.0432505,4.260247,1,,,0,,
stoparea:HTM:3322,,"Den Haag, Hertenrade",52.045207,4.2636745,1,,,0,,
stoparea:HTM:3327,,"Den Haag, De Dreef",52.0347426666667,4.257432,1,,,0,,
stoparea:HTM:3330,,"Den Haag, Beresteinlaan",52.036889,4.261449,1,,,0,,
stoparea:HTM:3333,,"Den Haag, Vrederustlaan",52.0397585,4.2668505,1,,,0,,
stoparea:HTM:3335,,"Den Haag, Revalidatiecentrum",52.0412645,4.269699,1,,,0,,
stoparea:HTM:3337,,"Den Haag, Lozerlaan",52.030703,4.260796,1,,,0,,
stoparea:HTM:3340,,"Den Haag, Ambachtsweg",52.033542,4.2667365,1,,,0,,
stoparea:HTM:3342,,"Den Haag, Vrederustlaan",52.035974,4.271529,1,,,0,,
stoparea:HTM:3350,,"Den Haag, De Uithof",52.03948,4.245292,1,,,0,,
stoparea:HTM:3358,,"Den Haag, Melis Stokelaan",52.0350255,4.254114,1,,,0,,
stoparea:HTM:3361,,"Den Haag, Randveen",52.038268,4.2515325,1,,,0,,
stoparea:HTM:3363,,"Den Haag, Erasmusweg",52.031775,4.257279,1,,,0,,
stoparea:HTM:3371,,"Den Haag, Ambachtsweg",52.033243,4.267006,1,,,0,,
stoparea:HTM:3372,,"Den Haag, Revalidatiecentrum",52.0405355,4.265811,1,,,0,,
stoparea:HTM:3383,,"Den Haag, Randveen (Uithof)",52.040893,4.247341,1,,,0,,
stoparea:HTM:3399,,"Den Haag, Melis Stokelaan",52.036423,4.262059,1,,,0,,
stoparea:HTM:3401,,"Den Haag, Dedemsvaartweg",52.0501065,4.26232,1,,,0,,
stoparea:HTM:3404,,"Den Haag, Zuidwoldepad",52.052821,4.266086,1,,,0,,
stoparea:HTM:3405,,"Den Haag, Meppelweg",52.052902,4.2712455,1,,,0,,
stoparea:HTM:3407,,"Den Haag, Almeloplein",52.0554395,4.2743975,1,,,0,,
stoparea:HTM:3409,,"Den Haag, Gramsbergenlaan",52.053527,4.2746565,1,,,0,,
stoparea:HTM:3411,,"Den Haag, Zweeloostraat",52.0476455,4.2686505,1,,,0,,
stoparea:HTM:3413,,"Den Haag, Leyweg",52.0500985,4.2746685,1,,,0,,
stoparea:HTM:3417,,"Den Haag, Leggelostraat",52.0445105,4.2760105,1,,,0,,
stoparea:HTM:3422,,"Den Haag, Leyweg",52.046201,4.2794015,1,,,0,,
stoparea:HTM:3424,,"Den Haag, Loevesteinlaan",52.0483545,4.283299,1,,,0,,
stoparea:HTM:3438,,"Den Haag, Fluitenbergstraat",52.0512825,4.280646,1,,,0,,
stoparea:HTM:3442,,"Den Haag, Steenwijklaan",52.0416225,4.277197,1,,,0,,
stoparea:HTM:3601,,"Den Haag, Loevesteinlaan",52.0480705,4.2851285,1,,,0,,
stoparea:HTM:3603,,"Den Haag, Zuiderpark",52.052797,4.291216,1,,,0,,
stoparea:HTM:3607,,"Den Haag, Anna Bijnslaan",52.0556085,4.299706,1,,,0,,
stoparea:HTM:3609,,"Den Haag, Hardenbroekstraat",52.045217,4.290498,1,,,0,,
stoparea:HTM:3612,,"Den Haag, Cannenburglaan",52.044274,4.290579,1,,,0,,
stoparea:HTM:3614,,"Den Haag, Remmersteinstraat",52.0469145,4.2936705,1,,,0,,
stoparea:HTM:3617,,"Den Haag, Geysterenweg",52.048135,4.295959,1,,,0,,
stoparea:HTM:3618,,"Den Haag, Erasmusplein",52.0501525,4.299744,1,,,0,,
stoparea:HTM:3620,,"Den Haag, Heeswijkplein",52.052005,4.30322,1,,,0,,
stoparea:HTM:3624,,"Den Haag, Moerweg",52.05853,4.294429,1,,,0,,
stoparea:HTM:3628,,"Den Haag, Station Moerwijk",52.055248,4.30842,1,,,0,,
stoparea:HTM:3635,,"Den Haag, Erasmusplein",52.051094,4.300516,1,,,0,,
stoparea:HTM:3701,,"Den Haag, Dynamostraat",52.058923,4.3063335,1,,,0,,
stoparea:HTM:3708,,"Den Haag, Melis Stokelaan",52.056555,4.3024535,1,,,0,,
stoparea:HTM:3801,,"Den Haag, Goudriaankade",52.068067,4.3278515,1,,,0,,
stoparea:HTM:3803,,"Den Haag, Calandplein",52.0630525,4.313591,1,,,0,,
stoparea:HTM:3805,,"Den Haag, Laakkade",52.065578,4.326431,1,,,0,,
stoparea:HTM:3807,,"Den Haag, Neherkade",52.061083,4.3184655,1,,,0,,
stoparea:HTM:3809,,"Den Haag, Oudemansstraat",52.062947,4.3252095,1,,,0,,
stoparea:HTM:3813,,"Den Haag, Van Musschenbroekstraat",52.065245,4.329931,1,,,0,,
stoparea:HTM:3815,,"Den Haag, Broeksloot",52.0596543333333,4.33446033333333,1,,,0,,
stoparea:HTM:3817,,"Den Haag, Van Zeggelenlaan",52.0564025,4.315756,1,,,0,,
stoparea:HTM:3819,,"Den Haag, Jonckbloetplein",52.05865225,4.3219685,1,,,0,,
stoparea:HTM:3823,,"Den Haag, Lorentzplein",52.061167,4.326725,1,,,0,,
stoparea:HTM:3827,,"Den Haag, Wenckebachstraat",52.062405,4.3324555,1,,,0,,
stoparea:HTM:3829,,"Den Haag, Alberdingk Thijmstraat",52.052086,4.3130815,1,,,0,,
stoparea:HTM:3831,,"Den Haag, Ledeganckplein",52.052917,4.316984,1,,,0,,
stoparea:HTM:3833,,"Den Haag, Jan van Beersstraat",52.0557325,4.3236455,1,,,0,,
stoparea:HTM:3839,,"Den Haag, Leeghwaterplein",52.066159,4.32164,1,,,0,,
stoparea:HTM:3841,,"Den Haag, Alberdingk Thijmstraat",52.055873,4.3118895,1,,,0,,
stoparea:HTM:3843,,"Den Haag, Stieltjesstraat",52.058659,4.312326,1,,,0,,
stoparea:HTM:3846,,"Den Haag, Station Hollands Spoor",52.068627,4.322697,1,,,0,,
stoparea:HTM:3857,,"Den Haag, Megastores",52.0648585,4.314999,1,,,0,,
stoparea:HTM:3859,,"Den Haag, Megastores hoofdingang",52.0669105,4.318742,1,,,0,,
stoparea:HTM:3903,,"Den Haag, Poolsterstraat",52.071157,4.3351885,1,,,0,,
stoparea:HTM:3905,,"Den Haag, Wegastraat",52.0685125,4.337949,1,,,0,,
stoparea:HTM:3907,,"Den Haag, Zonweg",52.0669515,4.340793,1,,,0,,
stoparea:HTM:3909,,"Den Haag, Melkwegstraat",52.0683855,4.345412,1,,,0,,
stoparea:HTM:3911,,"Den Haag, Saturnusstraat",52.0673475,4.348018,1,,,0,,
stoparea:HTM:3916,,"Den Haag, Regulusweg",52.068496,4.3518275,1,,,0,,
stoparea:HTM:4002,,"Den Haag, Laan van Wateringse Veld",52.027892,4.29149,1,,,0,,
stoparea:HTM:4005,,"Den Haag, Lage Veld",52.022434,4.2942755,1,,,0,,
stoparea:HTM:4009,,"Den Haag, Hoge Veld",52.031454,4.2860105,1,,,0,,
stoparea:HTM:401,,"Den Haag, Bronovo Ziekenhuis",52.1011325,4.314983,1,,,0,,
stoparea:HTM:4011,,"Den Haag, Oosteinde",52.026356,4.29018,1,,,0,,
stoparea:HTM:4013,,"Den Haag, Parijsplein",52.0198175,4.2956575,1,,,0,,
stoparea:HTM:403,,"Den Haag, Bronovo Ziekenhuis",52.103331,4.318083,1,,,0,,
stoparea:HTM:405,,"Den Haag, Waalsdorperweg",52.1044745,4.31853375,1,,,0,,
stoparea:HTM:407,,"Den Haag, Else Mauhslaan",52.105956,4.323516,1,,,0,,
stoparea:HTM:408,,"Den Haag, Stalpertstraat",52.105359,4.323166,1,,,0,,
stoparea:HTM:409,,"Den Haag, Theo Mann Bouwmeesterlaan",52.105388,4.325369,1,,,0,,
stoparea:HTM:411,,"Den Haag, Oostduinlaan",52.097041,4.3123515,1,,,0,,
stoparea:HTM:413,,"Den Haag, Van der Woertstraat",52.098541,4.3157095,1,,,0,,
stoparea:HTM:415,,"Den Haag, Ruychrocklaan",52.1002225,4.3216895,1,,,0,,
stoparea:HTM:417,,"Den Haag, Groenhovenstraat",52.0948845,4.3129145,1,,,0,,
stoparea:HTM:426,,"Den Haag, Jozef Israëlsplein",52.09237,4.319644,1,,,0,,
stoparea:HTM:428,,"Den Haag, Van Hoytemastraat",52.0938345,4.323564,1,,,0,,
stoparea:HTM:430,,"Den Haag, Wassenaarseweg",52.0961435,4.326406,1,,,0,,
stoparea:HTM:432,,"Den Haag, Van Alkemadelaan",52.095523,4.3283545,1,,,0,,
stoparea:HTM:436,,"Den Haag, Weissenbruchstraat",52.089273,4.318558,1,,,0,,
stoparea:HTM:438,,"Den Haag, Willem Witsenplein",52.0931935,4.329701,1,,,0,,
stoparea:HTM:440,,"Den Haag, Breitnerlaan",52.094367,4.330286,1,,,0,,
stoparea:HTM:441,,"Den Haag, Laan van Clingendael",52.095418,4.334158,1,,,0,,
stoparea:HTM:447,,"Den Haag, Wassenaarseweg",52.091645,4.3154805,1,,,0,,
stoparea:HTM:501,,"Den Haag, Ary van der Spuyweg",52.0897585,4.2940455,1,,,0,,
stoparea:HTM:503,,"Den Haag, Bankaplein",52.09362,4.302408,1,,,0,,
stoparea:HTM:505,,"Den Haag, Riouwstraat",52.0948065,4.3078015,1,,,0,,
stoparea:HTM:507,,"Den Haag, Vredespaleis",52.087263,4.29833833333333,1,,,0,,
stoparea:HTM:510,,"Den Haag, Nassauplein",52.090004,4.3055895,1,,,0,,
stoparea:HTM:5101,,"Rijswijk, Herenstraat",52.0570475,4.338444,1,,,0,,
stoparea:HTM:5103,,"Rijswijk, Herenstraat",52.056594,4.338075,1,,,0,,
stoparea:HTM:5104,,"Rijswijk, Herenstraat",52.05638,4.338212,1,,,0,,
stoparea:HTM:5105,,"Rijswijk, Bilderdijklaan",52.058225,4.341464,1,,,0,,
stoparea:HTM:5106,,"Rijswijk, Geestbrug",52.059171,4.343775,1,,,0,,
stoparea:HTM:5107,,"Rijswijk, Hoornbrug",52.053983,4.3405275,1,,,0,,
stoparea:HTM:513,,"Den Haag, Laan Copes van Cattenburch",52.0924565,4.309821,1,,,0,,
stoparea:HTM:515,,"Den Haag, Alexanderplein",52.0873415,4.3019625,1,,,0,,
stoparea:HTM:519,,"Den Haag, Javabrug",52.0897665,4.312045,1,,,0,,
stoparea:HTM:5205,,"Rijswijk, Esdoornstraat",52.054148,4.3378845,1,,,0,,
stoparea:HTM:5209,,"Rijswijk, Hendrik Ravesteijnplein",52.0486955,4.3322975,1,,,0,,
stoparea:HTM:5211,,"Rijswijk, Paulus Potterlaan",52.050576,4.33498,1,,,0,,
stoparea:HTM:5215,,"Rijswijk, Van Vredenburchweg",52.0522085,4.3276,1,,,0,,
stoparea:HTM:5217,,"Rijswijk, Generaal Spoorlaan",52.048256,4.3308645,1,,,0,,
stoparea:HTM:5301,,"Rijswijk, Van Vredenburchweg",52.0457955,4.3171975,1,,,0,,
stoparea:HTM:5303,,"Rijswijk, Generaal Spoorlaan",52.042892,4.3201605,1,,,0,,
stoparea:HTM:5305,,"Rijswijk, Huis te Landelaan",52.04307,4.3224665,1,,,0,,
stoparea:HTM:5307,,"Rijswijk, Rijswijkse Schouwburg",52.0460815,4.327417,1,,,0,,
stoparea:HTM:5309,,"Rijswijk, Dr. H. Colijnlaan",52.0415595,4.3224005,1,,,0,,
stoparea:HTM:5405,,"Rijswijk, In de Bogaard",52.0377645,4.3162675,1,,,0,,
stoparea:HTM:5409,,"Rijswijk, Prinses Beatrixlaan",52.0390265,4.3131835,1,,,0,,
stoparea:HTM:5411,,"Rijswijk, Rijswijk Station",52.037518,4.322322,1,,,0,,
stoparea:HTM:5413,,"Rijswijk, In de Bogaard",52.034694,4.317128,1,,,0,,
stoparea:HTM:5421,,"Rijswijk, Rijswijk Station",52.0376415,4.322523,1,,,0,,
stoparea:HTM:5501,,"Rijswijk, Sammersweg",52.0424485,4.2953175,1,,,0,,
stoparea:HTM:5503,,"Rijswijk, De Schilp",52.0385085,4.300355,1,,,0,,
stoparea:HTM:5509,,"Rijswijk, Minister van den Tempellaan",52.0377305,4.3085945,1,,,0,,
stoparea:HTM:5514,,"Rijswijk, Sir Winston Churchilllaan",52.031826,4.3042985,1,,,0,,
stoparea:HTM:5519,,"Rijswijk, Prinses Marijkesingel",52.034268,4.30303,1,,,0,,
stoparea:HTM:5601,,"Rijswijk, Wethouder Brederodelaan",52.030996,4.3128075,1,,,0,,
stoparea:HTM:5603,,"Rijswijk, Albert Schweitzerlaan",52.028018,4.312522,1,,,0,,
stoparea:HTM:5605,,"Rijswijk, Aletta Jacobsstraat",52.026853,4.309009,1,,,0,,
stoparea:HTM:5613,,"Rijswijk, Weidedreef",52.028167,4.318981,1,,,0,,
stoparea:HTM:5615,,"Rijswijk, Aletta Jacobsstraat",52.0246445,4.312217,1,,,0,,
stoparea:HTM:5617,,"Rijswijk, Eikelenburg",52.0226535,4.3063125,1,,,0,,
stoparea:HTM:5620,,"Rijswijk, Schaapweg",52.030957,4.304196,1,,,0,,
stoparea:HTM:5623,,"Rijswijk, Pater Doumenstraat",52.029009,4.3059115,1,,,0,,
stoparea:HTM:5701,,"Rijswijk, Admiraal Helfrichsingel",52.033806,4.3207925,1,,,0,,
stoparea:HTM:5703,,"Rijswijk, Admiraal Helfrichsingel",52.032349,4.3177375,1,,,0,,
stoparea:HTM:5705,,"Rijswijk, Klaroenstraat",52.0354085,4.324114,1,,,0,,
stoparea:HTM:5839,,"Rijswijk, Handelskade",52.044559,4.336105,1,,,0,,
stoparea:HTM:5841,,"Rijswijk, Patentlaan",52.0412405,4.338442,1,,,0,,
stoparea:HTM:5843,,"Rijswijk, Volmerlaan",52.03737,4.3302685,1,,,0,,
stoparea:HTM:5846,,"Rijswijk, Treubstraat",52.0393555,4.3261695,1,,,0,,
stoparea:HTM:5901,,"Rijswijk, Broekpolder",52.0496345,4.3453675,1,,,0,,
stoparea:HTM:5905,,"Rijswijk, 's-Gravenmade",52.044721,4.344243,1,,,0,,
stoparea:HTM:5907,,"Rijswijk, Verffabriek",52.033569,4.3460985,1,,,0,,
stoparea:HTM:5911,,"Rijswijk, Vlietbrug",52.041929,4.3446435,1,,,0,,
stoparea:HTM:5934,,"Rijswijk, Broekpolder",52.0494135,4.3468015,1,,,0,,
stoparea:HTM:5936,,"Den Haag, Laan van 's-Gravenmade (P+R Hoornwijck)",52.0483205,4.3528185,1,,,0,,
stoparea:HTM:5938,,"Den Haag, Laan van Ypenburg",52.0443363333333,4.361118,1,,,0,,
stoparea:HTM:5940,,"Den Haag, Plesmanlaan",52.040887,4.3677785,1,,,0,,
stoparea:HTM:5946,,"Den Haag, Anthony Fokkersingel",52.038363,4.35713,1,,,0,,
stoparea:HTM:5948,,"Den Haag, Defensie",52.027736,4.362037,1,,,0,,
stoparea:HTM:6003,,"Wateringen, Willem III straat",52.028194,4.271096,1,,,0,,
stoparea:HTM:6005,,"Wateringen, Plein",52.023927,4.274146,1,,,0,,
stoparea:HTM:601,,"Den Haag, Madurodam",52.0988626666667,4.30070233333333,1,,,0,,
stoparea:HTM:6019,,"Wateringen, Dorpskade",52.017156,4.28925166666667,1,,,0,,
stoparea:HTM:603,,"Den Haag, Madurodam",52.0974355,4.299988,1,,,0,,
stoparea:HTM:605,,"Den Haag, Kerkhoflaan",52.094687,4.301164,1,,,0,,
stoparea:HTM:7003,,"Voorburg, Laan van Heldenburg",52.0681615,4.3634595,1,,,0,,
stoparea:HTM:701,,"Den Haag, Strandweg",52.1062505,4.2708335,1,,,0,,
stoparea:HTM:702,,"Den Haag, Badhuiskade",52.108399,4.2769915,1,,,0,,
stoparea:HTM:706,,"Den Haag, Schev.slag/Beelden aan Zee",52.111149,4.2808135,1,,,0,,
stoparea:HTM:708,,"Den Haag, Circustheater",52.1113915,4.283173,1,,,0,,
stoparea:HTM:710,,"Den Haag, Vuurbaakstraat",52.1043235,4.2709325,1,,,0,,
stoparea:HTM:7101,,"Voorburg, Binckhorstlaan",52.060426,4.3454155,1,,,0,,
stoparea:HTM:7103,,"Voorburg, Diaconessenhuis",52.0628935,4.350003,1,,,0,,
stoparea:HTM:7105,,"Voorburg, Redenburgstraat",52.064559,4.353391,1,,,0,,
stoparea:HTM:7110,,"Voorburg, Voorburg Station",52.06701925,4.358443,1,,,0,,
stoparea:HTM:7112,,"Voorburg, Sonnenburghlaan",52.065445,4.354961,1,,,0,,
stoparea:HTM:714,,"Den Haag, Keizerstraat",52.1040965,4.276872,1,,,0,,
stoparea:HTM:716,,"Den Haag, Duinstraat",52.101609,4.273796,1,,,0,,
stoparea:HTM:718,,"Den Haag, Duinstraat",52.1013595,4.2744875,1,,,0,,
stoparea:HTM:720,,"Den Haag, Prins Willemstraat",52.101918,4.277459,1,,,0,,
stoparea:HTM:7201,,"Voorburg, Rozenboomlaan",52.070301,4.365037,1,,,0,,
stoparea:HTM:7210,,"Voorburg, Leidschendam Voorburg",52.078121,4.382299,1,,,0,,
stoparea:HTM:7211,,"Voorburg, Leidschendam-Voorburg",52.0776155,4.381967,1,,,0,,
stoparea:HTM:722,,"Den Haag, Duinstraat",52.102065,4.278827,1,,,0,,
stoparea:HTM:724,,"Den Haag, Haringkade",52.104351,4.286325,1,,,0,,
stoparea:HTM:726,,"Den Haag, Nieuwe Parklaan",52.1071755,4.2888975,1,,,0,,
stoparea:HTM:728,,"Den Haag, Nieuwe Duinweg",52.107466,4.289204,1,,,0,,
stoparea:HTM:730,,"Den Haag, Douzastraat",52.093334,4.267537,1,,,0,,
stoparea:HTM:732,,"Den Haag, Statenlaan",52.0966645,4.27038,1,,,0,,
stoparea:HTM:734,,"Den Haag, Rusthoekstraat",52.101803,4.283446,1,,,0,,
stoparea:HTM:740,,"Den Haag, Zuiderstrandtheater",52.096399,4.259528,1,,,0,,
stoparea:HTM:7411,,"Voorburg, Bruijnings Ingenhoeslaan",52.0780205,4.3499145,1,,,0,,
stoparea:HTM:7505,,"Voorburg , Mgr. van Steelaan",52.077006,4.3541105,1,,,0,,
stoparea:HTM:7507,,"Voorburg, Spinozalaan",52.07694,4.3605015,1,,,0,,
stoparea:HTM:7509,,"Voorburg, Koningin Julianaplein",52.0751655,4.3615635,1,,,0,,
stoparea:HTM:7601,,"Voorburg, Voorburg 't Loo",52.081811,4.365569,1,,,0,,
stoparea:HTM:7603,,"Voorburg, Prinses Beatrixlaan",52.0791985,4.360253,1,,,0,,
stoparea:HTM:7611,,"Voorburg, Voorburg 't Loo",52.0823655,4.365228,1,,,0,,
stoparea:HTM:7701,,"Voorburg, Station Mariahoeve",52.088933,4.368974,1,,,0,,
stoparea:HTM:7703,,"Voorburg, Essesteijn",52.0870595,4.372745,1,,,0,,
stoparea:HTM:7705,,"Voorburg, Elzendreef",52.084158,4.369812,1,,,0,,
stoparea:HTM:8001,,"Zoetermeer, Centrum-West",52.061408,4.48277,1,,,0,,
stoparea:HTM:801,,"Den Haag, Markenseplein",52.08771,4.252349,1,,,0,,
stoparea:HTM:8016,,"Zoetermeer, Hoflaan",52.064074,4.464895,1,,,0,,
stoparea:HTM:8018,,"Zoetermeer, Buytenparklaan",52.064704,4.45937,1,,,0,,
stoparea:HTM:802,,"Den Haag, Markenseplein",52.087976,4.2524515,1,,,0,,
stoparea:HTM:803,,"Den Haag, Tesselseplein",52.0899285,4.257823,1,,,0,,
stoparea:HTM:8041,,"Zoetermeer, Mandelabrug",52.04702,4.477288,1,,,0,,
stoparea:HTM:8042,,"Zoetermeer, Rokkeveenseweg Zuid",52.044553,4.500385,1,,,0,,
stoparea:HTM:8043,,"Zoetermeer, Silverdome",52.05217,4.517657,1,,,0,,
stoparea:HTM:8044,,"Zoetermeer, Salomeschouw",52.064729,4.498745,1,,,0,,
stoparea:HTM:805,,"Den Haag, Tholensestraat",52.086197,4.2557945,1,,,0,,
stoparea:HTM:807,,"Den Haag, Nieboerweg",52.0906705,4.262992,1,,,0,,
stoparea:HTM:8101,,"Zoetermeer, Voorweg Laag",52.0627095,4.4709465,1,,,0,,
stoparea:HTM:8103,,"Zoetermeer, Centrum-West",52.06063075,4.48313625,1,,,0,,
stoparea:HTM:8105,,"Zoetermeer, Stadhuis",52.061096,4.49313,1,,,0,,
stoparea:HTM:8107,,"Zoetermeer, Palenstein",52.0596875,4.5066685,1,,,0,,
stoparea:HTM:8109,,"Zoetermeer, Seghwaert",52.0630825,4.5153445,1,,,0,,
stoparea:HTM:8111,,"Zoetermeer, Leidsewallen",52.068988,4.509899,1,,,0,,
stoparea:HTM:8113,,"Zoetermeer, De Leyens",52.0719665,4.4948315,1,,,0,,
stoparea:HTM:8115,,"Zoetermeer, Buytenwegh",52.066751,4.4786155,1,,,0,,
stoparea:HTM:8117,,"Zoetermeer, Voorweg Hoog",52.062769,4.4711055,1,,,0,,
stoparea:HTM:8119,,"Zoetermeer, Meerzicht",52.0555155,4.469956,1,,,0,,
stoparea:HTM:8121,,"Zoetermeer, Driemanspolder",52.0484495,4.477361,1,,,0,,
stoparea:HTM:8123,,"Zoetermeer, Delftsewallen",52.0508885,4.4871235,1,,,0,,
stoparea:HTM:8125,,"Zoetermeer, Dorp",52.0542595,4.491918,1,,,0,,
stoparea:HTM:8128,,"Zoetermeer, Willem Dreeslaan",52.065295,4.5345375,1,,,0,,
stoparea:HTM:8130,,"Zoetermeer, Oosterheem",52.060306,4.5426535,1,,,0,,
stoparea:HTM:8132,,"Zoetermeer, Javalaan",52.0535965,4.537669,1,,,0,,
stoparea:HTM:9003,,"Delft, Brasserskade",52.0239463333333,4.351468,1,,,0,,
stoparea:HTM:9005,,"Delft, Nieuwe Plantage",52.017333,4.352451,1,,,0,,
stoparea:HTM:9007,,"Delft, Wateringsevest",52.0153315,4.3507395,1,,,0,,
stoparea:HTM:9009,,"Delft, Prinsenhof",52.011749,4.3532475,1,,,0,,
stoparea:HTM:901,,"Den Haag, Statenlaan",52.0963236666667,4.271473,1,,,0,,
stoparea:HTM:9013,,"Delft, Bankastraat",52.024411,4.354988,1,,,0,,
stoparea:HTM:9017,,"Delft, Delft Station",52.005719,4.3579965,1,,,0,,
stoparea:HTM:903,,"Den Haag, Van Boetzelaerlaan",52.095198,4.272153,1,,,0,,
stoparea:HTM:904,,"Den Haag, Scheveningseweg",52.099074,4.281441,1,,,0,,
stoparea:HTM:906,,"Den Haag, Frankenslag",52.0999505,4.281449,1,,,0,,
stoparea:HTM:909,,"Den Haag, Prins Mauritslaan",52.095571,4.276405,1,,,0,,
stoparea:HTM:910,,"Den Haag, Prins Mauritsplein",52.095483,4.278071,1,,,0,,
stoparea:HTM:9101,,"Delft, Krakeelpolderweg",52.0025725,4.3538235,1,,,0,,
stoparea:HTM:9103,,"Delft, Hovenpassage",51.999083,4.3547345,1,,,0,,
stoparea:HTM:9107,,"Delft, Diepenbrockstraat",51.9950003333333,4.344492,1,,,0,,
stoparea:HTM:9109,,"Delft, Van der Slootsingel",51.990022,4.3444815,1,,,0,,
stoparea:HTM:9111,,"Delft, Sadatweg",51.984473,4.3436425,1,,,0,,
stoparea:HTM:9113,,"Delft, Bikolaan",51.98092,4.341789,1,,,0,,
stoparea:HTM:9115,,"Delft, Abtswoudsepark",51.980723,4.3500615,1,,,0,,
stoparea:HTM:9116,,"Delft, Abtswoudsepark keerlus",51.980989,4.35114,1,,,0,,
stoparea:HTM:9118,,"Delft, Jan Campertlaan",51.991692,4.3570005,1,,,0,,
stoparea:HTM:9120,,"Delft, Westlandseweg",52.001535,4.342757,1,,,0,,
stoparea:HTM:9121,,"Den Hoorn, Hof van Delftstraat",51.999409,4.329191,1,,,0,,
stoparea:HTM:913,,"Den Haag, Willem de Zwijgerlaan",52.0913235,4.271148,1,,,0,,
stoparea:HTM:9136,,"Delft, Martinus Nijhofflaan",51.996384,4.3503035,1,,,0,,
stoparea:HTM:915,,"Den Haag, Frederik Hendriklaan",52.0927165,4.2758925,1,,,0,,
stoparea:HTM:917,,"Den Haag, Willem de Zwijgerlaan",52.090651,4.274696,1,,,0,,
stoparea:HTM:919,,"Den Haag, World Forum",52.0935295,4.280666,1,,,0,,
stoparea:HTM:921,,"Den Haag, World Forum",52.0962055,4.2860725,1,,,0,,
stoparea:HTM:923,,"Den Haag, Boreelstraat",52.088354,4.272236,1,,,0,,
stoparea:HTM:925,,"Den Haag, Statenplein",52.091408,4.2782305,1,,,0,,
stoparea:HTM:927,,"Den Haag, Statenplein",52.090759,4.2784945,1,,,0,,
stoparea:HTM:930,,"Den Haag, Aert van der Goesstraat",52.087573,4.277596,1,,,0,,
stoparea:HTM:932,,"Den Haag, Van Boetzelaerlaan",52.086047,4.274044,1,,,0,,
stoparea:HTM:934,,"Den Haag, Doornstraat",52.098253,4.273923,1,,,0,,
stoparea:HTM:940,,"Den Haag, Van Boetzelaerlaan",52.09543,4.271928,1,,,0,,
stoparea:HTM:941,,"Den Haag, Frankenslag",52.094085,4.273261,1,,,0,,
stoparea:HTM:9501,,"Leidschendam, Leidsenhage",52.0908155,4.382028,1,,,0,,
stoparea:HTM:9503,,"Leidschendam, Burgemeester Kolfschotenlaan",52.09479,4.389053,1,,,0,,
stoparea:HTM:9505,,"Leidschendam, Kastelenring",52.097811,4.3950495,1,,,0,,
stoparea:HTM:9507,,"Leidschendam, Dillenburgsingel",52.099977,4.39984233333333,1,,,0,,
stoparea:HTM:9509,,"Leidschendam, MCH Antoniushove",52.09252,4.382208,1,,,0,,
stoparea:HTM:9515,,"Leidschendam, Prins Bernhardlaan",52.089953,4.39645,1,,,0,,
stoparea:HTM:9519,,"Leidschendam, Damlaan",52.08381,4.393814,1,,,0,,
stoparea:HTM:9549,,"Den Haag, Rotonde Houtkade",52.05912,4.416687,1,,,0,,
stoparea:HTM:9573,,"Leidschendam, MCH Antoniushove",52.090629,4.381784,1,,,0,,
stoparea:HTM:9576,,"Leidschendam, Dillenburgsingel",52.099916,4.400068,1,,,0,,
stoparea:HTM:9579,,"Den Haag, Eendenplein",52.065791,4.410286,1,,,0,,
stoparea:HTM:9589,,"Den Haag, Leidschenveen Centrum",52.064945,4.400518,1,,,0,,
stoparea:HTM:9591,,"Den Haag, Lanen",52.060613,4.395204,1,,,0,,
stoparea:HTM:9594,,"Den Haag, Forepark",52.0701595,4.392578,1,,,0,,
stoparea:HTM:9596,,"Den Haag, Leidschenveen",52.0649985,4.3999485,1,,,0,,
stoparea:HTM:9807,,"Den Haag, Weidevogellaan",52.05124,4.38482633333333,1,,,0,,
stoparea:HTM:9810,,"Den Haag, Scholekstersingel",52.0446425,4.37692,1,,,0,,
stoparea:HTM:9812,,"Den Haag, Gruttosingel",52.0486485,4.382946,1,,,0,,
stoparea:HTM:9814,,"Nootdorp, Nootdorp Centrum",52.045597,4.392475,1,,,0,,
stoparea:HTM:9831,,"Den Haag, Nootdorp Centrum",52.045512,4.394182,1,,,0,,
