stop_id,stop_code,stop_name,stop_lat,stop_lon,location_type,parent_station,stop_timezone,wheelchair_boarding,platform_code,zone_id
CXX:11010020,11010020,"Antwerpen, Kempenstraat",51.230564,4.413488,0,stoparea:CXX:antnoo,,,,
CXX:11010021,11010021,"Antwerpen, Kempenstraat",51.231745,4.413878,0,stoparea:CXX:antnoo,,,,
CXX:11010100,11010100,"Antwerpen, Metrostation Halewijnlaan",51.220595,4.379731,0,stoparea:CXX:anthal,,,,
CXX:11010110,11010110,"Antwerpen, Metrostation Halewijnlaan",51.220595,4.379731,0,stoparea:CXX:anthal,,,,
CXX:16000010,16000010,"Meppel, Station",52.691759,6.197307,0,stoparea:CXX:mplns,,0,A,
CXX:16000160,16000160,"Meppel, Hugo de Grootstraat",52.701914,6.186739,0,stoparea:CXX:mplhug,,1,,
CXX:16000170,16000170,"Meppel, Hugo de Grootstraat",52.701805,6.187032,0,stoparea:CXX:mplhug,,,,
CXX:16000180,16000180,"Meppel, Steenwijkerstraatweg",52.703397,6.182786,0,stoparea:CXX:mplste,,0,,
CXX:16000190,16000190,"Meppel, Steenwijkerstraatweg",52.703218,6.182664,0,stoparea:CXX:mplste,,0,,
CXX:16000600,16000600,"Meppel, Burgem. Knopperslaan",52.698364,6.197414,0,stoparea:CXX:mplbur,,0,,
CXX:16000610,16000610,"Meppel, Burgem. Knopperslaan",52.699059,6.197013,0,stoparea:CXX:mplbur,,0,,
CXX:16005000,16005000,"Meppel, Station",52.691391,6.197211,0,stoparea:CXX:mplns,,,,
CXX:16100010,16100010,"Nijeveen, Perceel 3",52.72826,6.164451,0,stoparea:CXX:nijpe3,,0,,
CXX:16100020,16100020,"Nijeveen, Perceel 3",52.728106,6.164655,0,stoparea:CXX:nijpe3,,0,,
CXX:16100030,16100030,"Kolderveen, Perceel 56",52.723503,6.155159,0,stoparea:CXX:wnvp56,,0,,
CXX:16100040,16100040,"Kolderveen, Perceel 56",52.72366,6.155888,0,stoparea:CXX:wnvp56,,0,,
CXX:16100050,16100050,"Kolderveen, Thijs van Urklaan",52.721757,6.150008,0,,,0,,
CXX:16100060,16100060,"Kolderveen, Thijs van Urklaan",52.721666,6.150198,0,,,0,,
CXX:16180050,16180050,"Staphorst, Redder",52.65397,6.231799,0,stoparea:CXX:sthred,,0,,
CXX:16180060,16180060,"Staphorst, Redder",52.653844,6.231855,0,stoparea:CXX:sthred,,0,,
CXX:16180070,16180070,"Staphorst, Reggersweg",52.651182,6.221903,0,,,0,,
CXX:16180080,16180080,"Staphorst, Reggersweg",52.651073,6.222019,0,,,0,,
CXX:16180100,16180100,"Staphorst, Vlakkenweg",52.6389,6.193984,0,stoparea:CXX:sthvla,,0,,
CXX:16180110,16180110,"Staphorst, Vlakkenweg",52.638645,6.193211,0,stoparea:CXX:sthvla,,0,,
CXX:16180120,16180120,"Staphorst, Geerligsland",52.640817,6.197506,0,,,0,,
CXX:16180130,16180130,"Staphorst, Geerligsland",52.640953,6.197435,0,,,0,,
CXX:16180140,16180140,"Staphorst, Jan Arendsland",52.642557,6.200656,0,,,0,,
CXX:16180150,16180150,"Staphorst, Jan Arendsland",52.64256,6.200331,0,,,0,,
CXX:16180160,16180160,"Staphorst, Snelweg",52.641797,6.202799,0,stoparea:CXX:sthsne,,0,,
CXX:16180170,16180170,"Staphorst, Snelweg",52.642227,6.202895,0,stoparea:CXX:sthsne,,0,,
CXX:16180180,16180180,"Staphorst, Achthoevenweg",52.638549,6.208544,0,,,0,,
CXX:16180190,16180190,"Staphorst, Achthoevenweg",52.63879,6.208711,0,,,0,,
CXX:16180200,16180200,"Staphorst, Hoogeweg",52.64038,6.211474,0,,,0,,
CXX:16180210,16180210,"Staphorst, Hoogeweg",52.640363,6.211238,0,,,1,,
CXX:16180220,16180220,"Staphorst, Bergerslag",52.642501,6.213982,0,,,1,,
CXX:16180230,16180230,"Staphorst, Bergerslag",52.642421,6.213891,0,,,1,,
CXX:16180240,16180240,"Staphorst, Gemeentehuis",52.644943,6.210585,0,stoparea:CXX:sthgem,,0,,
CXX:16180250,16180250,"Staphorst, Gemeentehuis",52.644644,6.210845,0,stoparea:CXX:sthgem,,1,,
CXX:16180340,16180340,"Staphorst, Pieterzandtcollege",52.634583,6.21141,0,stoparea:CXX:sthpzs,,,,
CXX:16280110,16280110,"Rouveen, Oostermenneweg",52.595722,6.194359,0,,,0,,
CXX:16280130,16280130,"Rouveen, Zuideindigerweg",52.601624,6.196061,0,,,0,,
CXX:16280140,16280140,"Rouveen, Stadsweg",52.607808,6.19461,0,stoparea:CXX:rousta,,,,
CXX:16280150,16280150,"Rouveen, Stadsweg",52.607719,6.194446,0,stoparea:CXX:rousta,,1,,
CXX:16280160,16280160,"Rouveen, Oude Rijksweg",52.61217,6.190216,0,,,0,,
CXX:16280170,16280170,"Rouveen, Oude Rijksweg 485",52.612544,6.189456,0,,,1,,
CXX:16280180,16280180,"Rouveen, Hervormde Kerk",52.614563,6.18713,0,stoparea:CXX:rouher,,1,,
CXX:16280190,16280190,"Rouveen, Hervormde Kerk",52.615315,6.186317,0,stoparea:CXX:rouher,,0,,
CXX:16280200,16280200,"Rouveen, Oude Rijksweg 415",52.618379,6.185102,0,,,,,
CXX:16280210,16280210,"Rouveen, Oude Rijksweg 415",52.618605,6.184796,0,,,0,,
CXX:16280220,16280220,"Rouveen, Oude Geref. Kerk",52.624452,6.18279,0,,,1,,
CXX:16280230,16280230,"Rouveen, Oude Geref. Kerk",52.624318,6.182596,0,,,1,,
CXX:16280240,16280240,"Rouveen, Conradsweg",52.627803,6.182954,0,,,,,
CXX:16280250,16280250,"Rouveen, Conradsweg",52.627185,6.182604,0,,,0,,
CXX:16280260,16280260,"Rouveen, Schoolwijksweg",52.631232,6.184878,0,,,,,
CXX:16280270,16280270,"Rouveen, Schoolwijksweg",52.631707,6.185093,0,,,,,
CXX:16280280,16280280,"Rouveen, Dekkersweg",52.635769,6.189244,0,stoparea:CXX:roudwg,,1,,
CXX:16280290,16280290,"Rouveen, Dekkersweg",52.635681,6.188888,0,stoparea:CXX:roudwg,,1,,
CXX:16300010,16300010,"Steenwijk, Gemeentehuis",52.782019,6.116359,0,,,1,,
CXX:16300020,16300020,"Steenwijk, Gemeentehuis",52.781769,6.116118,0,,,1,,
CXX:16300030,16300030,"Steenwijk, Vendelweg",52.784648,6.114239,0,,,0,,
CXX:16300040,16300040,"Steenwijk, Vendelweg",52.784514,6.114088,0,,,0,,
CXX:16300050,16300050,"Steenwijk, Matthijs Kiersstraat",52.787835,6.110364,0,stoparea:CXX:stnmki,,1,,
CXX:16300070,16300070,"Steenwijk, Matthijs Kiersstraat",52.787552,6.111026,0,stoparea:CXX:stnmki,,1,,
CXX:16380180,16380180,"Lichtmis, Busstation",52.584864,6.194485,0,stoparea:CXX:licbus,,,,
CXX:16380190,16380190,"Lichtmis, Busstation",52.584783,6.194424,0,stoparea:CXX:licbus,,1,,
CXX:17000010,17000010,"Hoogeveen, Station",52.733321,6.473134,0,stoparea:CXX:hgnns,,,F,
CXX:17190050,17190050,"Hollandscheveld, 't Hoekje",52.706346,6.532897,0,stoparea:CXX:hovthk,,,,
CXX:17190060,17190060,"Hollandscheveld, 't Hoekje",52.706471,6.533019,0,stoparea:CXX:hovthk,,,,
CXX:17310030,17310030,"Noordscheschut, Zwarte Dijkje",52.720863,6.533691,0,stoparea:CXX:nstzwa,,,,
CXX:17310040,17310040,"Noordscheschut, Zwarte Dijkje",52.720989,6.53362,0,stoparea:CXX:nstzwa,,1,,
CXX:22010010,22010010,"Gent, Dampoort",51.057952,3.739673,0,stoparea:CXX:gendam,,,,
CXX:22010020,22010020,"Gent, Dampoort",51.057517,3.740116,0,stoparea:CXX:gendam,,,,
CXX:22010050,22010050,"Gent, Zuid(Centrum)",51.047476,3.73196,0,stoparea:CXX:genzui,,,,
CXX:24350010,24350010,"De Blesse, Spin",52.836858,6.048563,0,stoparea:CXX:blespi,,0,,
CXX:24350020,24350020,"De Blesse, Spin",52.835818,6.04969,0,stoparea:CXX:blespi,,0,,
CXX:24350030,24350030,"De Blesse, Bovenweg",52.84275,6.040994,0,,,0,,
CXX:24350040,24350040,"De Blesse, Bovenweg",52.841122,6.04281,0,,,1,,
CXX:24350050,24350050,"De Blesse, Friese Veldweg",52.835824,6.025531,0,stoparea:CXX:blefvw,,0,,
CXX:24350060,24350060,"De Blesse, Friese Veldweg",52.835778,6.025797,0,stoparea:CXX:blefvw,,0,,
CXX:24350070,24350070,"Blesdijke, Lagebroekweg",52.831064,6.014882,0,stoparea:CXX:bdklbw,,1,,
CXX:24350080,24350080,"Blesdijke, Lagebroekweg",52.830217,6.013504,0,stoparea:CXX:bdklbw,,,,
CXX:24350600,24350600,"De Blesse, Noord",52.845637,6.037356,0,stoparea:CXX:blenoo,,1,,
CXX:24350610,24350610,"De Blesse, Noord",52.845637,6.037356,0,stoparea:CXX:blenoo,,1,,
CXX:24450030,24450030,"Marijenkampen, Marijenkampen",52.814535,6.072329,0,,,0,,
CXX:24450050,24450050,"Willemsoord, Eikenlaan",52.831625,6.055502,0,stoparea:CXX:swweik,,0,,
CXX:24450060,24450060,"Willemsoord, Eikenlaan",52.831111,6.055777,0,stoparea:CXX:swweik,,0,,
CXX:24450080,24450080,"Marijenkampen, Marijenkampen",52.814283,6.072369,0,,,,,
CXX:24451400,24451400,"Steenwijkerwold, 't Centrum",52.804472,6.065691,0,stoparea:CXX:swwcen,,1,,
CXX:24451800,24451800,"Willemsoord, Willemsoord",52.824469,6.062307,0,stoparea:CXX:swwwil,,1,,
CXX:24451810,24451810,"Willemsoord, Willemsoord",52.824927,6.062225,0,stoparea:CXX:swwwil,,1,,
CXX:24510020,24510020,"Oldemarkt, Frieseweg",52.819022,5.976066,0,,,0,,
CXX:24510040,24510040,"Oldemarkt, Koningin Julianaweg",52.817333,5.97766,0,stoparea:CXX:olmjul,,1,,
CXX:24510060,24510060,"Oldemarkt, Parochiehuis",52.820881,5.981758,0,stoparea:CXX:olmpar,,1,,
CXX:24510070,24510070,"Oldemarkt, Kruisstraat",52.820501,5.965672,0,stoparea:CXX:olmkru,,0,,
CXX:24510080,24510080,"Oldemarkt, Kruisstraat",52.819946,5.967044,0,stoparea:CXX:olmkru,,0,,
CXX:24510090,24510090,"Oldemarkt, De Boterberg",52.821689,5.961682,0,,,1,,
CXX:24510100,24510100,"Oldemarkt, De Boterberg",52.821636,5.961444,0,,,,,
CXX:24550030,24550030,"Zuidveen, Zuidveen",52.77947,6.111515,0,stoparea:CXX:stnzui,,1,,
CXX:24550040,24550040,"Zuidveen, Zuidveen",52.779018,6.108958,0,stoparea:CXX:stnzui,,0,,
CXX:24550050,24550050,"Steenwijk, Groot Verlaat",52.775443,6.095132,0,stoparea:CXX:stngro,,1,,
CXX:24550060,24550060,"Steenwijk, Groot Verlaat",52.775782,6.097005,0,stoparea:CXX:stngro,,1,,
CXX:24550160,24550160,"Steenwijk, Dolderbrug",52.789324,6.103332,0,stoparea:CXX:stnddb,,0,,
CXX:24550170,24550170,"Steenwijk, Dolderbrug",52.789775,6.103087,0,stoparea:CXX:stnddb,,0,,
CXX:24550250,24550250,"Steenwijk, Station",52.790724,6.118506,0,stoparea:CXX:stnns,,,B,
CXX:24551420,24551420,"Steenwijkerwold, 't Centrum",52.804309,6.065822,0,stoparea:CXX:swwcen,,1,,
CXX:24552310,24552310,"Tuk, Gemeentewerken",52.794813,6.097595,0,stoparea:CXX:tukgem,,0,,
CXX:24552320,24552320,"Tuk, Gemeentewerken",52.79512,6.097496,0,stoparea:CXX:tukgem,,0,,
CXX:24552330,24552330,"Tuk, Oldemarktseweg",52.798041,6.092754,0,stoparea:CXX:tukomw,,1,,
CXX:24552340,24552340,"Tuk, Oldemarktseweg",52.797513,6.094036,0,stoparea:CXX:tukomw,,1,,
CXX:24552350,24552350,"Thij, Watertoren",52.799505,6.080664,0,stoparea:CXX:thywat,,0,,
CXX:24552360,24552360,"Thij, Watertoren",52.799266,6.081728,0,stoparea:CXX:thywat,,0,,
CXX:24552370,24552370,"Thij, Thij",52.801582,6.069664,0,,,1,,
CXX:24552380,24552380,"Thij, Thij",52.801475,6.069544,0,,,1,,
CXX:24559000,24559000,"Steenwijk, Station",52.790724,6.118506,0,stoparea:CXX:stnns,,,D,
CXX:24590100,24590100,"Kuinre, Burchtstraat",52.785909,5.841711,0,stoparea:CXX:kuibur,,1,,
CXX:24590200,24590200,"Kuinre, Burchtstraat",52.7859,5.841682,0,stoparea:CXX:kuibur,,1,,
CXX:24610010,24610010,"Ossenzijl, Venebosweg",52.809718,5.921289,0,stoparea:CXX:oszvbw,,0,,
CXX:24620010,24620010,"Lemmer, Busstation",52.847724,5.721007,0,stoparea:CXX:lembus,,,,
CXX:24620110,24620110,"Rutten, Lemsterweg",52.834393,5.712685,0,,,0,,
CXX:24620130,24620130,"Lemmer, Houtmolen",52.843787,5.718098,0,stoparea:CXX:lemhou,,,,
CXX:24620140,24620140,"Lemmer, Houtmolen",52.843769,5.717845,0,stoparea:CXX:lemhou,,0,,
CXX:24620150,24620150,"Lemmer, Zeedijk",52.846214,5.720981,0,,,,,
CXX:24620160,24620160,"Lemmer, Zeedijk",52.846367,5.720715,0,,,0,,
CXX:24625000,24625000,"Lemmer, Busstation",52.847706,5.721022,0,stoparea:CXX:lembus,,,,
CXX:24680010,24680010,"Luttelgeest, Uiterdijkenweg",52.779839,5.842878,0,stoparea:CXX:ltguit,,0,,
CXX:24680020,24680020,"Luttelgeest, Uiterdijkenweg",52.778052,5.842519,0,stoparea:CXX:ltguit,,0,,
CXX:24720010,24720010,"Rutten, Lemsterpoort",52.805324,5.697847,0,stoparea:CXX:rutten,,1,,
CXX:24720020,24720020,"Rutten, Lemsterpoort",52.805423,5.698055,0,stoparea:CXX:rutten,,1,,
CXX:24720090,24720090,"Rutten, Noordermeerweg",52.826146,5.698173,0,,,0,,
CXX:24720100,24720100,"Rutten, Noordermeerweg",52.824951,5.697971,0,,,0,,
CXX:24720120,24720120,"Rutten, Lemsterweg",52.833334,5.711875,0,,,0,,
CXX:24750010,24750010,"Kolderveen, Zuivelfabriek",52.725632,6.159534,0,stoparea:CXX:kdvzui,,0,,
CXX:24750020,24750020,"Kolderveen, Zuivelfabriek",52.725709,6.160009,0,stoparea:CXX:kdvzui,,0,,
CXX:24750100,24750100,"Meppel, Nijeveenseweg",52.706014,6.179829,0,stoparea:CXX:mplnvw,,0,,
CXX:24750110,24750110,"Meppel, Nijeveenseweg",52.705898,6.179694,0,stoparea:CXX:mplnvw,,0,,
CXX:24820030,24820030,"Creil, Wrakkenpad",52.779006,5.674674,0,,,0,,
CXX:24820040,24820040,"Creil, Wrakkenpad",52.77803,5.673422,0,,,0,,
CXX:24820050,24820050,"Rutten, IJzerpad",52.79117,5.687399,0,,,0,,
CXX:24820060,24820060,"Rutten, IJzerpad",52.790212,5.686162,0,,,0,,
CXX:24820090,24820090,"Creil, Creil",52.763522,5.65955,0,stoparea:CXX:crecre,,1,,
CXX:24820100,24820100,"Creil, Creil",52.763567,5.65958,0,stoparea:CXX:crecre,,1,,
CXX:24920030,24920030,"Espel, Weg van Ongenade",52.724356,5.689798,0,,,0,,
CXX:24920040,24920040,"Espel, Weg van Ongenade",52.724207,5.691914,0,,,0,,
CXX:24920050,24920050,"Espel, Onderduikerspad",52.739684,5.645527,0,,,1,,
CXX:24920060,24920060,"Espel, Onderduikerspad",52.73839,5.645298,0,,,1,,
CXX:24920070,24920070,"Espel, Noordermiddenweg",52.724556,5.666975,0,,,0,,
CXX:24920080,24920080,"Emmeloord, Espelerweg",52.724149,5.71049,0,stoparea:CXX:emmesp,,0,,
CXX:24920090,24920090,"Espel, Noordermiddenweg",52.724431,5.666382,0,,,0,,
CXX:24920100,24920100,"Emmeloord, Espelerweg",52.72402,5.711392,0,stoparea:CXX:emmesp,,0,,
CXX:24920110,24920110,"Espel, Espel",52.724721,5.645558,0,,,1,,
CXX:24920120,24920120,"Espel, Espel",52.724649,5.645557,0,,,1,,
CXX:24920130,24920130,"Creil, Klutenpad",52.753137,5.649976,0,,,1,,
CXX:24920140,24920140,"Creil, Klutenpad",52.752097,5.648829,0,,,1,,
CXX:25000010,25000010,"Emmeloord, Kettingstraat",52.710404,5.757976,0,,,1,,
CXX:25000020,25000020,"Emmeloord, Kettingstraat",52.710373,5.759322,0,,,1,,
CXX:25000030,25000030,"Emmeloord, Lange Dreef",52.710614,5.762757,0,,,1,,
CXX:25000040,25000040,"Emmeloord, Lange Dreef",52.710562,5.764858,0,,,1,,
CXX:25000050,25000050,"Emmeloord, Bunschotenlaan",52.703182,5.765549,0,,,1,,
CXX:25000070,25000070,"Emmeloord, Emmeloord - Oost",52.710972,5.774273,0,stoparea:CXX:emmoos,,1,,
CXX:25000080,25000080,"Emmeloord, Emmeloord - Oost",52.710828,5.777261,0,stoparea:CXX:emmoos,,1,,
CXX:25000100,25000100,"Emmeloord, Diemenlaan",52.702128,5.760702,0,stoparea:CXX:emmdie,,1,,
CXX:25000130,25000130,"Emmeloord, Ecopark",52.709162,5.789024,0,,,0,,
CXX:25000140,25000140,"Emmeloord, Ecopark",52.709424,5.788627,0,,,0,,
CXX:25000150,25000150,"Emmeloord, Diemenlaan",52.70245,5.76106,0,stoparea:CXX:emmdie,,1,,
CXX:25000160,25000160,"Emmeloord, Ondernemersweg",52.694052,5.759539,0,stoparea:CXX:emmond,,0,,
CXX:25000170,25000170,"Emmeloord, Ondernemersweg",52.693907,5.759819,0,stoparea:CXX:emmond,,0,,
CXX:25000180,25000180,"Emmeloord, Produktieweg",52.699064,5.75757,0,,,0,,
CXX:25000190,25000190,"Emmeloord, Produktieweg",52.70026,5.757299,0,,,0,,
CXX:25000210,25000210,"Emmeloord, Zuyderzee College",52.704875,5.75574,0,stoparea:CXX:emmzuy,,0,,
CXX:25000260,25000260,"Emmeloord, Zuyderzee College",52.705135,5.756038,0,stoparea:CXX:emmzuy,,0,,
CXX:25000410,25000410,"Emmeloord, Begraafplaats",52.717611,5.746493,0,stoparea:CXX:emmbeg,,1,,
CXX:25000420,25000420,"Emmeloord, Begraafplaats",52.716036,5.74725,0,stoparea:CXX:emmbeg,,1,,
CXX:25000430,25000430,"Emmeloord, Dr. W.M. Verhaarlaan",52.721473,5.744172,0,stoparea:CXX:emmver,,1,,
CXX:25000440,25000440,"Emmeloord, Dr. W.M. Verhaarlaan",52.721546,5.743935,0,stoparea:CXX:emmver,,1,,
CXX:25000450,25000450,"Emmeloord, Schaftweg/Espelerweg",52.724024,5.723263,0,,,0,,
CXX:25000460,25000460,"Emmeloord, Schaftweg/Espelerweg",52.723896,5.723883,0,,,0,,
CXX:25000500,25000500,"Emmeloord, Ziekenhuis",52.708441,5.744657,0,stoparea:CXX:emmzie,,1,,
CXX:25000550,25000550,"Emmeloord, Ziekenhuis",52.70831,5.743132,0,stoparea:CXX:emmzie,,1,,
CXX:25000600,25000600,"Emmeloord, Emmeloord-West",52.705086,5.736581,0,stoparea:CXX:emmwes,,1,,
CXX:25000650,25000650,"Emmeloord, Emmeloord-West",52.704227,5.735258,0,stoparea:CXX:emmwes,,1,,
CXX:25000700,25000700,"Emmeloord, Urkerweg 18",52.69347,5.719153,0,stoparea:CXX:emmu18,,0,,
CXX:25001400,25001400,"Emmeloord, Smeden",52.708744,5.754159,0,,,1,,
CXX:25001450,25001450,"Emmeloord, Smeden",52.709166,5.754222,0,,,1,,
CXX:25005010,25005010,"Emmeloord, Busstation",52.710145,5.751552,0,stoparea:CXX:emmbus,,1,D,
CXX:25005012,25005012,"Emmeloord, Busstation",52.710226,5.751641,0,stoparea:CXX:emmbus,,1,B,
CXX:25005013,25005013,"Emmeloord, Busstation",52.710208,5.751567,0,stoparea:CXX:emmbus,,1,C,
CXX:25005014,25005014,"Emmeloord, Busstation",52.710173,5.751404,0,stoparea:CXX:emmbus,,1,D,
CXX:25005020,25005020,"Emmeloord, Busstation",52.710145,5.751552,0,stoparea:CXX:emmbus,,1,B,
CXX:25005021,25005021,"Emmeloord, Busstation",52.710083,5.751359,0,stoparea:CXX:emmbus,,1,E,
CXX:25005022,25005022,"Emmeloord, Busstation",52.710002,5.751358,0,stoparea:CXX:emmbus,,1,F,
CXX:25005023,25005023,"Emmeloord, Busstation",52.709984,5.751284,0,stoparea:CXX:emmbus,,1,G,
CXX:25060010,25060010,"Luttelgeest, Brink",52.742222,5.856229,0,stoparea:CXX:ltgbri,,0,,
CXX:25060020,25060020,"Luttelgeest, Brink",52.7424,5.856587,0,stoparea:CXX:ltgbri,,0,,
CXX:25060030,25060030,"Luttelgeest, Luttelgeesterweg",52.737259,5.858856,0,stoparea:CXX:ltglut,,0,,
CXX:25060040,25060040,"Luttelgeest, Luttelgeesterweg",52.736513,5.858967,0,stoparea:CXX:ltglut,,0,,
CXX:25060050,25060050,"Luttelgeest, Lindeweg",52.752626,5.842981,0,,,0,,
CXX:25060060,25060060,"Luttelgeest, Lindeweg",52.751912,5.843921,0,,,0,,
CXX:25060070,25060070,"Luttelgeest, Orchideeenhoeve",52.758153,5.833409,0,,,0,,
CXX:25060080,25060080,"Luttelgeest, Orchideeenhoeve",52.75744,5.834335,0,,,0,,
CXX:25060090,25060090,"Luttelgeest, Oosterringweg",52.762753,5.826582,0,stoparea:CXX:ltgoos,,1,,
CXX:25060100,25060100,"Luttelgeest, Oosterringweg",52.762834,5.826435,0,stoparea:CXX:ltgoos,,1,,
CXX:25060110,25060110,"Luttelgeest, Schansweg",52.770449,5.835357,0,,,0,,
CXX:25060120,25060120,"Luttelgeest, Schansweg",52.769072,5.833535,0,,,0,,
CXX:25070010,25070010,"Marknesse, Luttelgeesterweg",52.708274,5.833982,0,stoparea:CXX:mkslut,,1,,
CXX:25070020,25070020,"Marknesse, Luttelgeesterweg",52.708041,5.836096,0,stoparea:CXX:mkslut,,0,,
CXX:25070030,25070030,"Emmeloord, H.D. Louwes Hoeve",52.709218,5.81918,0,stoparea:CXX:emmlou,,0,,
CXX:25070040,25070040,"Emmeloord, H.D. Louwes Hoeve",52.709085,5.818558,0,stoparea:CXX:emmlou,,0,,
CXX:25070050,25070050,"Emmeloord, Lindeweg",52.708932,5.803641,0,,,1,,
CXX:25070060,25070060,"Emmeloord, Lindeweg",52.708798,5.80583,0,,,0,,
CXX:25130100,25130100,"Ens, Sloefweg",52.667904,5.791115,0,stoparea:CXX:ensslo,,0,,
CXX:25130150,25130150,"Ens, Sloefweg",52.668173,5.791369,0,stoparea:CXX:ensslo,,0,,
CXX:25130200,25130200,"Emmeloord, Bomenweg",52.686475,5.77944,0,stoparea:CXX:emmbwg,,0,,
CXX:25130250,25130250,"Emmeloord, Bomenweg",52.686528,5.779559,0,stoparea:CXX:emmbwg,,0,,
CXX:25130300,25130300,"Emmeloord, Kleiweg",52.699754,5.777754,0,,,0,,
CXX:25130350,25130350,"Emmeloord, Kleiweg",52.700572,5.777717,0,,,0,,
CXX:25131500,25131500,"Emmeloord, Bunschotenlaan",52.70285,5.765176,0,,,1,,
CXX:25140100,25140100,"Emmeloord, Schaftweg/Nagelerweg",52.675658,5.752922,0,stoparea:CXX:emmhsn,,0,,
CXX:25140150,25140150,"Emmeloord, Schaftweg/Nagelerweg",52.674692,5.751494,0,stoparea:CXX:emmhsn,,0,,
CXX:25140300,25140300,"Nagele, Johannes Postweg",52.660445,5.734305,0,stoparea:CXX:nagjpo,,0,,
CXX:25140350,25140350,"Nagele, Johannes Postweg",52.659478,5.732878,0,stoparea:CXX:nagjpo,,0,,
CXX:25150050,25150050,"Emmeloord, Urkerweg 18",52.692721,5.717033,0,stoparea:CXX:emmu18,,0,,
CXX:25150100,25150100,"Tollebeek, Urkerweg 34",52.682075,5.692272,0,stoparea:CXX:tolu34,,0,,
CXX:25150150,25150150,"Tollebeek, Urkerweg 34",52.681299,5.690093,0,stoparea:CXX:tolu34,,0,,
CXX:25150200,25150200,"Tollebeek, Sint Hubertusplaats",52.677073,5.680142,0,stoparea:CXX:emmtol,,1,,
CXX:25150250,25150250,"Tollebeek, Sint Hubertusplaats",52.677012,5.679447,0,stoparea:CXX:emmtol,,1,,
CXX:25150300,25150300,"Tollebeek, Urkerweg 46",52.67238,5.669688,0,stoparea:CXX:tolu46,,0,,
CXX:25150350,25150350,"Tollebeek, Urkerweg 46",52.671568,5.667406,0,stoparea:CXX:tolu46,,0,,
CXX:25150400,25150400,"Urk, Urkerdwarspad",52.666749,5.656377,0,stoparea:CXX:urkudp,,0,,
CXX:25170030,25170030,"Kraggenburg, Zwembad Voorst",52.671033,5.885525,0,,,0,,
CXX:25170040,25170040,"Kraggenburg, Zwembad Voorst",52.67024,5.886122,0,,,0,,
CXX:25170050,25170050,"Kraggenburg, Picknickplaats",52.677784,5.878593,0,,,0,,
CXX:25170060,25170060,"Kraggenburg, Picknickplaats",52.677199,5.878956,0,,,0,,
CXX:25170070,25170070,"Kraggenburg, Mammouthweg",52.686322,5.86983,0,,,0,,
CXX:25170080,25170080,"Kraggenburg, Mammouthweg",52.686097,5.869842,0,,,,,
CXX:25170090,25170090,"Marknesse, Leemringweg/Sloefweg",52.692413,5.86361,0,stoparea:CXX:mkslee,,0,,
CXX:25170100,25170100,"Marknesse, Leemringweg/Sloefweg",52.691936,5.863842,0,stoparea:CXX:mkslee,,0,,
CXX:25170110,25170110,"Marknesse, Boslaan",52.70772,5.854055,0,,,0,,
CXX:25170120,25170120,"Marknesse, Boslaan",52.707825,5.854885,0,,,0,,
CXX:25170211,25170211,"Marknesse, Busstation",52.71242,5.867808,0,stoparea:CXX:mksbno,,1,C,
CXX:25170212,25170212,"Marknesse, Busstation",52.712043,5.867479,0,stoparea:CXX:mksbno,,1,A,
CXX:25170213,25170213,"Marknesse, Busstation",52.712115,5.867568,0,stoparea:CXX:mksbno,,1,B,
CXX:25170221,25170221,"Marknesse, Busstation",52.712098,5.86739,0,stoparea:CXX:mksbno,,1,E,
CXX:25170222,25170222,"Marknesse, Busstation",52.712151,5.867435,0,stoparea:CXX:mksbno,,1,D,
CXX:25170223,25170223,"Marknesse, Busstation",52.712241,5.867525,0,stoparea:CXX:mksbno,,,D,
CXX:25170230,25170230,"Marknesse, Breestraat",52.707901,5.862758,0,stoparea:CXX:mksbre,,1,,
CXX:25170240,25170240,"Marknesse, Breestraat",52.707784,5.862963,0,stoparea:CXX:mksbre,,1,,
CXX:25180010,25180010,"Blokzijl, Busstation",52.727995,5.957139,0,stoparea:CXX:blzbus,,1,,
CXX:25180020,25180020,"Blokzijl, Busstation",52.728004,5.957213,0,stoparea:CXX:blzbus,,1,,
CXX:25180030,25180030,"Marknesse, Uiterdijkenweg",52.723137,5.937138,0,stoparea:CXX:mksuit,,1,,
CXX:25180040,25180040,"Marknesse, Uiterdijkenweg",52.723441,5.93951,0,stoparea:CXX:mksuit,,0,,
CXX:25180050,25180050,"Marknesse, Steenwijkerdwarsweg",52.717214,5.901219,0,,,0,,
CXX:25180060,25180060,"Marknesse, Steenwijkerdwarsweg",52.716928,5.898626,0,,,0,,
CXX:25230030,25230030,"Ens, Ens",52.634979,5.823355,0,stoparea:CXX:ensdor,,1,,
CXX:25230040,25230040,"Ens, Ens",52.634457,5.823483,0,stoparea:CXX:ensdor,,1,,
CXX:25240010,25240010,"Nagele, Domineesweg",52.646737,5.674621,0,stoparea:CXX:nagdom,,1,,
CXX:25240020,25240020,"Nagele, Domineesweg",52.646737,5.674621,0,stoparea:CXX:nagdom,,1,,
CXX:25240150,25240150,"Nagele, Professor Brandsmaw.",52.644819,5.69751,0,,,0,,
CXX:25240200,25240200,"Nagele, Professor Brandsmaw.",52.644686,5.700508,0,,,0,,
CXX:25240800,25240800,"Nagele, Nagele",52.64415,5.722135,0,stoparea:CXX:nagnag,,1,,
CXX:25240850,25240850,"Nagele, Nagele",52.644034,5.721986,0,stoparea:CXX:nagnag,,1,,
CXX:25250010,25250010,"Urk, Singel",52.661016,5.60328,0,stoparea:CXX:urksin,,1,,
CXX:25250050,25250050,"Urk, Urkerdwarspad",52.66599,5.654229,0,stoparea:CXX:urkudp,,0,,
CXX:25250100,25250100,"Urk, Urkerweg 60",52.659865,5.640195,0,,,1,,
CXX:25250150,25250150,"Urk, Urkerweg 60",52.659946,5.639989,0,,,,,
CXX:25250210,25250210,"Urk, Ransuil",52.66075,5.629086,0,stoparea:CXX:urkran,,1,,
CXX:25250220,25250220,"Urk, Ransuil",52.659832,5.629775,0,stoparea:CXX:urkran,,0,,
CXX:25250230,25250230,"Urk, Winkelcentrum",52.663653,5.624593,0,,,0,,
CXX:25250240,25250240,"Urk, Winkelcentrum",52.663554,5.624977,0,,,0,,
CXX:25250270,25250270,"Urk, Vlaak",52.665262,5.620108,0,stoparea:CXX:urkvla,,0,,
CXX:25250300,25250300,"Urk, Rotholm",52.661575,5.611841,0,stoparea:CXX:urkrot,,0,,
CXX:25250850,25250850,"Urk, Lange Dam",52.667145,5.613156,0,,,0,,
CXX:25250950,25250950,"Urk, De Noord",52.667279,5.603799,0,stoparea:CXX:urknoo,,0,,
CXX:25251000,25251000,"Urk, Gemeentehuis",52.663275,5.601296,0,stoparea:CXX:urkgem,,0,,
CXX:25251050,25251050,"Urk, Gemeentehuis",52.663275,5.601296,0,stoparea:CXX:urkgem,,0,,
CXX:25251510,25251510,"Urk, Marsdiep",52.655262,5.618917,0,stoparea:CXX:urkmar,,0,,
CXX:25251520,25251520,"Urk, Marsdiep",52.655165,5.617749,0,stoparea:CXX:urkmar,,0,,
CXX:25270010,25270010,"Vollenhove, Clarenberglaan",52.682161,5.957209,0,stoparea:CXX:volcla,,1,,
CXX:25270020,25270020,"Vollenhove, Clarenberglaan",52.682276,5.957551,0,stoparea:CXX:volcla,,1,,
CXX:25270030,25270030,"Kraggenburg, Kraggenburg",52.664428,5.898222,0,stoparea:CXX:kgbkgb,,0,,
CXX:25270040,25270040,"Kraggenburg, Kraggenburg",52.664428,5.898251,0,stoparea:CXX:kgbkgb,,0,,
CXX:25270110,25270110,"Marknesse, Vollenhoverweg/NOP",52.68561,5.944225,0,stoparea:CXX:mksvol,,0,,
CXX:25270120,25270120,"Marknesse, Vollenhoverweg/NOP",52.685503,5.944091,0,stoparea:CXX:mksvol,,0,,
CXX:25270130,25270130,"Marknesse, Repelweg",52.681085,5.939465,0,stoparea:CXX:mksrep,,0,,
CXX:25270140,25270140,"Marknesse, Repelweg",52.68144,5.940357,0,stoparea:CXX:mksrep,,0,,
CXX:25270150,25270150,"Marknesse, Voorsterweg",52.673747,5.928698,0,,,0,,
CXX:25270160,25270160,"Marknesse, Voorsterweg",52.674946,5.929852,0,,,0,,
CXX:25270170,25270170,"Marknesse, Voorstersluis",52.669699,5.929535,0,,,0,,
CXX:25270180,25270180,"Marknesse, Voorstersluis",52.669599,5.9298,0,,,0,,
CXX:25270190,25270190,"Kraggenburg, Paardenweg",52.664636,5.920323,0,stoparea:CXX:kgbpaa,,0,,
CXX:25270200,25270200,"Kraggenburg, Paardenweg",52.664634,5.920885,0,stoparea:CXX:kgbpaa,,0,,
CXX:25280010,25280010,"Scheerwolde, Boomkwekerij",52.749775,6.021922,0,stoparea:CXX:swoboo,,0,,
CXX:25280020,25280020,"Scheerwolde, Boomkwekerij",52.750179,6.023735,0,stoparea:CXX:swoboo,,0,,
CXX:25280050,25280050,"Wetering, Beenderribben",52.744946,6.0038,0,stoparea:CXX:wribee,,0,,
CXX:25280060,25280060,"Wetering, Beenderribben",52.744829,6.002007,0,stoparea:CXX:wribee,,0,,
CXX:25280070,25280070,"Wetering, Wetering",52.743615,5.989995,0,,,1,,
CXX:25280080,25280080,"Wetering, Wetering",52.743635,5.989566,0,,,1,,
CXX:25280090,25280090,"Baarlo, Veldhuisweg",52.737433,5.969803,0,stoparea:CXX:wrivhw,,0,,
CXX:25280100,25280100,"Baarlo, Veldhuisweg",52.737082,5.968169,0,stoparea:CXX:wrivhw,,0,,
CXX:25300010,25300010,"Nagele, Domineesweg",52.646359,5.675091,0,stoparea:CXX:nagdom,,1,,
CXX:25300020,25300020,"Nagele, Domineesweg",52.646359,5.675091,0,stoparea:CXX:nagdom,,1,,
CXX:25330300,25330300,"Ens, Zwartemeerweg",52.621763,5.8365,0,stoparea:CXX:enszwa,,1,,
CXX:25330350,25330350,"Ens, Zwartemeerweg",52.622755,5.835757,0,stoparea:CXX:enszwa,,1,,
CXX:25350010,25350010,"Blesdijke, Markeweg",52.824551,5.998795,0,,,0,,
CXX:25350020,25350020,"Blesdijke, Markeweg",52.824451,5.998927,0,,,0,,
CXX:25350030,25350030,"Blesdijke, Dalhoeve",52.821826,5.986666,0,stoparea:CXX:bdkdal,,0,,
CXX:25350040,25350040,"Blesdijke, Dalhoeve",52.821797,5.987244,0,stoparea:CXX:bdkdal,,0,,
CXX:25350060,25350060,"Oldemarkt, Parochiehuis",52.820597,5.980938,0,stoparea:CXX:olmpar,,1,,
CXX:25350090,25350090,"Oldemarkt, Frieseweg",52.819075,5.976185,0,,,0,,
CXX:25350310,25350310,"Oldemarkt, Koningin Julianaweg",52.817323,5.977838,0,stoparea:CXX:olmjul,,1,,
CXX:25370010,25370010,"Heetveld, Heetveld",52.66229,6.010933,0,stoparea:CXX:sjkhee,,1,,
CXX:25370020,25370020,"Heetveld, Heetveld",52.66194,6.010824,0,stoparea:CXX:sjkhee,,1,,
CXX:25370070,25370070,"Heetveld, Prot Chr Basisschool",52.664589,6.011276,0,,,0,,
CXX:25370080,25370080,"Heetveld, Prot Chr Basisschool",52.664563,6.011039,0,,,1,,
CXX:25380010,25380010,"Scheerwolde, Jan van Nassauweg",52.765861,6.053462,0,stoparea:CXX:hawjvn,,0,,
CXX:25380020,25380020,"Scheerwolde, Jan van Nassauweg",52.765492,6.051901,0,stoparea:CXX:hawjvn,,0,,
CXX:25380030,25380030,"Scheerwolde, Smalleweg",52.756475,6.041143,0,stoparea:CXX:hawsma,,0,,
CXX:25380040,25380040,"Scheerwolde, Smalleweg",52.755942,6.039861,0,stoparea:CXX:hawsma,,0,,
CXX:25430010,25430010,"Kampereiland, Noorderrandweg",52.603658,5.858738,0,,,0,,
CXX:25430020,25430020,"Kampereiland, Noorderrandweg",52.60305,5.86003,0,,,0,,
CXX:25430030,25430030,"Kampereiland, Rechterveldweg",52.60692,5.84965,0,stoparea:CXX:ramrvw,,0,,
CXX:25430040,25430040,"Kampereiland, Rechterveldweg",52.606385,5.850722,0,stoparea:CXX:ramrvw,,0,,
CXX:25430050,25430050,"Kampereiland, Natuurbad Seveningen",52.57014,5.911214,0,stoparea:CXX:kpense,,0,,
CXX:25430100,25430100,"Kampereiland, Nesweg",52.575714,5.902459,0,,,0,,
CXX:25430150,25430150,"Kampereiland, Nesweg",52.577097,5.900779,0,,,0,,
CXX:25430200,25430200,"Kampereiland, Kampereiland Kerk",52.58123,5.894689,0,,,0,,
CXX:25430250,25430250,"Kampereiland, Kampereiland Kerk",52.582867,5.892318,0,,,0,,
CXX:25430300,25430300,"Kampereiland, Witte Brug",52.58657,5.874934,0,,,0,,
CXX:25430350,25430350,"Kampereiland, Witte Brug",52.587519,5.873867,0,,,0,,
CXX:25430390,25430390,"Kampereiland, Dam-Noorddiep",52.599501,5.866693,0,stoparea:CXX:kpedno,,0,,
CXX:25430400,25430400,"Kampereiland, Dam-Noorddiep",52.596885,5.866842,0,stoparea:CXX:kpedno,,0,,
CXX:25440050,25440050,"Swifterbant, Visvijverweg",52.595143,5.634378,0,stoparea:CXX:swivis,,1,,
CXX:25440100,25440100,"Swifterbant, Visvijverweg",52.595385,5.634497,0,stoparea:CXX:swivis,,1,,
CXX:25450810,25450810,"Ossenzijl, Kooystraat",52.808065,5.916998,0,stoparea:CXX:osskoo,,1,,
CXX:25450820,25450820,"Ossenzijl, Kooystraat",52.80809,5.917472,0,stoparea:CXX:osskoo,,,,
CXX:25450830,25450830,"Ossenzijl, Venebosweg",52.809611,5.921021,0,stoparea:CXX:oszvbw,,0,,
CXX:25470010,25470010,"De Velde, De Velde",52.622979,6.088498,0,stoparea:CXX:zslvel,,1,,
CXX:25470020,25470020,"De Velde, De Velde",52.622034,6.088646,0,stoparea:CXX:zslvel,,1,,
CXX:25470030,25470030,"Zwartsluis, Busstation",52.639746,6.068954,0,stoparea:CXX:zslbus,,1,,
CXX:25470040,25470040,"Zwartsluis, Busstation",52.639602,6.068981,0,stoparea:CXX:zslbus,,1,,
CXX:25470050,25470050,"Zwartsluis, Bejaardencentrum",52.643863,6.078193,0,stoparea:CXX:zslbej,,1,,
CXX:25470060,25470060,"Zwartsluis, Bejaardencentrum",52.643629,6.076594,0,stoparea:CXX:zslbej,,1,,
CXX:25470070,25470070,"De Krieger, De Krieger",52.655399,6.010465,0,stoparea:CXX:sjkkri,,0,,
CXX:25470080,25470080,"De Krieger, De Krieger",52.65492,6.009232,0,stoparea:CXX:sjkkri,,0,,
CXX:25470081,25470081,"De Krieger, De Krieger",52.655895,6.008536,0,stoparea:CXX:sjkkri,,0,,
CXX:25480010,25480010,"Kamperzeedijk, Chr. Basisschool",52.597586,6.003227,0,stoparea:CXX:gnmkzs,,0,,
CXX:25480020,25480020,"Kamperzeedijk, Chr. Basisschool",52.597461,6.003121,0,stoparea:CXX:gnmkzs,,0,,
CXX:25580010,25580010,"Genemuiden, Nieuweweg",52.621096,6.051653,0,stoparea:CXX:gnmnie,,1,,
CXX:25580020,25580020,"Genemuiden, Nieuweweg",52.620069,6.052214,0,stoparea:CXX:gnmnie,,1,,
CXX:25580030,25580030,"Genemuiden, 't TAG",52.617086,6.035704,0,stoparea:CXX:gnmtag,,1,,
CXX:25580040,25580040,"Genemuiden, 't TAG",52.617352,6.036446,0,stoparea:CXX:gnmtag,,1,,
CXX:25630010,25630010,"Grafhorst, Koekoeksgemaal",52.588712,5.953255,0,stoparea:CXX:ysmkoe,,0,,
CXX:25630020,25630020,"Grafhorst, Koekoeksgemaal",52.588552,5.953076,0,stoparea:CXX:ysmkoe,,0,,
CXX:25630030,25630030,"IJsselmuiden, Vahl",52.577355,5.933473,0,stoparea:CXX:ysmvah,,0,,
CXX:25630040,25630040,"IJsselmuiden, Vahl",52.577786,5.933582,0,stoparea:CXX:ysmvah,,0,,
CXX:25630050,25630050,"IJsselmuiden, Fuite",52.573721,5.932337,0,stoparea:CXX:ysmfui,,0,,
CXX:25630060,25630060,"IJsselmuiden, Fuite",52.573061,5.93311,0,stoparea:CXX:ysmfui,,0,,
CXX:25630070,25630070,"IJsselmuiden, Plasweg",52.571455,5.934388,0,,,1,,
CXX:25630080,25630080,"IJsselmuiden, Plasweg",52.571608,5.934479,0,,,1,,
CXX:25630090,25630090,"IJsselmuiden, Groenendael",52.567921,5.936734,0,,,0,,
CXX:25630100,25630100,"IJsselmuiden, Groenendael",52.567858,5.93691,0,,,0,,
CXX:25630110,25630110,"IJsselmuiden, R.K. Kerk",52.564088,5.933884,0,stoparea:CXX:ysmrkk,,0,,
CXX:25630120,25630120,"IJsselmuiden, R.K. Kerk",52.563554,5.932771,0,stoparea:CXX:ysmrkk,,1,,
CXX:25670010,25670010,"Hasselt, H. van Viandenplein",52.589766,6.101236,0,stoparea:CXX:hsevia,,1,,
CXX:25670020,25670020,"Hasselt, H. van Viandenplein",52.589076,6.10245,0,stoparea:CXX:hsevia,,1,,
CXX:25670030,25670030,"Hasselt, Scheepswerf",52.593454,6.090212,0,stoparea:CXX:hsesch,,1,,
CXX:25670040,25670040,"Hasselt, Scheepswerf",52.593302,6.089989,0,stoparea:CXX:hsesch,,1,,
CXX:25680010,25680010,"Beukers, Sluis",52.663813,6.099837,0,stoparea:CXX:bkeslu,,0,,
CXX:25680020,25680020,"Beukers, Sluis",52.662498,6.1002,0,stoparea:CXX:bkeslu,,0,,
CXX:25680030,25680030,"Blauwe Hand, Blauwe Hand",52.694634,6.077794,0,stoparea:CXX:bhabha,,1,,
CXX:25680040,25680040,"Blauwe Hand, Blauwe Hand",52.694553,6.077734,0,stoparea:CXX:bhabha,,1,,
CXX:25780010,25780010,"Giethoorn, Dominee Hylkemaweg",52.722,6.077751,0,stoparea:CXX:giehyl,,0,,
CXX:25780020,25780020,"Giethoorn, Dominee Hylkemaweg",52.72175,6.07757,0,stoparea:CXX:giehyl,,0,,
CXX:25780030,25780030,"Giethoorn, Kerkweg",52.741439,6.07785,0,stoparea:CXX:gieker,,1,,
CXX:25780040,25780040,"Giethoorn, Kerkweg",52.741386,6.077671,0,stoparea:CXX:gieker,,1,,
CXX:25780050,25780050,"Giethoorn, Hotel Harmonie",52.751287,6.081264,0,stoparea:CXX:giehar,,0,,
CXX:25780060,25780060,"Giethoorn, Hotel Harmonie",52.751323,6.081131,0,stoparea:CXX:giehar,,0,,
CXX:25830030,25830030,"Kampen, Station",52.560158,5.922495,0,stoparea:CXX:kamns,,0,,
CXX:25830050,25830050,"Kampen, Station",52.559836,5.922167,0,stoparea:CXX:kamns,,0,,
CXX:25830090,25830090,"Kampen, Gemeentehuis",52.551888,5.914846,0,stoparea:CXX:kambel,,0,,
CXX:25830110,25830110,"Kampen, Oranjesingel",52.562423,5.910429,0,stoparea:CXX:kamora,,1,,
CXX:25830170,25830170,"Kampen, Station Zuid",52.532863,5.914736,0,stoparea:CXX:kamzst,,1,,
CXX:25830190,25830190,"Kampen, Station Zuid",52.532926,5.914648,0,stoparea:CXX:kamzst,,1,,
CXX:25830270,25830270,"Kampen, Leeghwaterstraat",52.546119,5.908555,0,stoparea:CXX:kamlee,,0,,
CXX:25830280,25830280,"Kampen, Beekmanstraat",52.548781,5.908145,0,,,0,,
CXX:25830290,25830290,"Kampen, Amandelboom",52.549363,5.906795,0,,,0,,
CXX:25830300,25830300,"Kampen, Andoorn",52.548028,5.899452,0,,,0,,
CXX:25830310,25830310,"Kampen, Sterrekroos",52.55213,5.890314,0,,,0,,
CXX:25830320,25830320,"Kampen, Hilbert v Dijkstraat",52.556609,5.895821,0,stoparea:CXX:kamhdy,,0,,
CXX:25830330,25830330,"Kampen, Doctor Kolfflaan",52.558639,5.893913,0,stoparea:CXX:kamkol,,0,,
CXX:25830340,25830340,"Kampen, Colijnlaan",52.560947,5.90059,0,,,0,,
CXX:25830360,25830360,"Kampen, Ommelandsingel",52.560493,5.901839,0,stoparea:CXX:kamdam,,0,,
CXX:25830480,25830480,"Kampen, Bovenbroeksweg",52.544183,5.913574,0,,,0,,
CXX:25830490,25830490,"Kampen, Bovenbroeksweg",52.544084,5.913543,0,,,0,,
CXX:25830500,25830500,"Kampen, Loriestraat",52.544583,5.916557,0,,,0,,
CXX:25830510,25830510,"Kampen, Loriestraat",52.544617,5.916985,0,,,0,,
CXX:25830520,25830520,"Kampen, Blauwe Engel",52.532915,5.917065,0,stoparea:CXX:kamble,,,,
CXX:25830530,25830530,"Kampen, Blauwe Engel",52.533032,5.917096,0,stoparea:CXX:kamble,,,,
CXX:34000010,34000010,"Den Helder, Station",52.956727,4.761516,0,stoparea:CXX:dhens,,0,,
CXX:34000020,34000020,"Den Helder, Station",52.956619,4.761444,0,stoparea:CXX:dhens,,0,,
CXX:34000021,34000021,"Den Helder, Station NS",52.956628,4.761443,0,stoparea:CXX:dhens,,0,,
CXX:34000030,34000030,"Den Helder, Station",52.956699,4.761204,0,stoparea:CXX:dhens,,0,,
CXX:34000040,34000040,"Den Helder, Sperwerstraat",52.952374,4.762546,0,stoparea:CXX:dhespe,,0,,
CXX:34000070,34000070,"Den Helder, Tuinstraat",52.950158,4.75801,0,stoparea:CXX:dhetui,,0,,
CXX:34000090,34000090,"Den Helder, Sportlaan",52.952509,4.753959,0,,,0,,
CXX:34000100,34000100,"Den Helder, Quelderduin",52.945966,4.767547,0,stoparea:CXX:dheinw,,0,,
CXX:34000110,34000110,"Den Helder, Middenweg",52.953389,4.750568,0,stoparea:CXX:dhemid,,0,,
CXX:34000130,34000130,"Den Helder, Dollardlaan",52.949742,4.745652,0,,,0,,
CXX:34000150,34000150,"Den Helder, Marsdiepplein",52.945955,4.743342,0,stoparea:CXX:dhealb,,0,,
CXX:34000180,34000180,"Den Helder, Baljuwstraat",52.935786,4.769551,0,stoparea:CXX:dhebal,,0,,
CXX:34000190,34000190,"Den Helder, Ambachtsweg",52.940653,4.777619,0,stoparea:CXX:dheamb,,0,,
CXX:34000200,34000200,"Den Helder, Dirk Abbesteelaan",52.93319,4.771655,0,stoparea:CXX:dhedir,,0,,
CXX:34000210,34000210,"Den Helder, De Lichtboei",52.93844,4.744584,0,stoparea:CXX:dhedli,,0,,
CXX:34000240,34000240,"Den Helder, Torplaan",52.933689,4.777746,0,stoparea:CXX:dhetor,,0,,
CXX:34000260,34000260,"Den Helder, G.P.Blankmanstraat",52.936304,4.77768,0,stoparea:CXX:dhegpb,,0,,
CXX:34000270,34000270,"Den Helder, Rijnstraat",52.945923,4.749174,0,,,0,,
CXX:34000280,34000280,"Den Helder, J.A.Prinsstraat",52.938676,4.777647,0,,,0,,
CXX:34000290,34000290,"Den Helder, Duinroosstraat",52.940255,4.736286,0,stoparea:CXX:dhezkw,,0,,
CXX:34000330,34000330,"Den Helder, Het Heersdiep",52.948004,4.75511,0,stoparea:CXX:dhesco,,0,,
CXX:34000350,34000350,"Den Helder, Meidoornstraat",52.94378,4.738301,0,,,0,,
CXX:34000360,34000360,"Den Helder, Vinkenstraat",52.949146,4.763872,0,,,0,,
CXX:34000390,34000390,"Den Helder, Vechtstraat",52.945546,4.740938,0,,,0,,
CXX:34000410,34000410,"Den Helder, Marsdiepplein",52.945623,4.743466,0,stoparea:CXX:dhealb,,0,,
CXX:34000430,34000430,"Den Helder, Dollardlaan",52.949402,4.746103,0,,,0,,
CXX:34000450,34000450,"Den Helder, Sportlaan",52.953212,4.752713,0,,,0,,
CXX:34000460,34000460,"Den Helder, Meidoornstraat",52.943671,4.738065,0,,,0,,
CXX:34000470,34000470,"Den Helder, Tuinstraat",52.949943,4.758236,0,stoparea:CXX:dhetui,,0,,
CXX:34000480,34000480,"Den Helder, Het Heersdiep",52.947753,4.753685,0,stoparea:CXX:dhesco,,0,,
CXX:34000520,34000520,"Den Helder, Rijnstraat",52.946166,4.749216,0,,,0,,
CXX:34000530,34000530,"Den Helder, Station uitstap",52.956985,4.760992,0,stoparea:CXX:dhens,,,,
CXX:34000560,34000560,"Den Helder, Nieuweweg",52.930359,4.75602,0,,,0,,
CXX:34000570,34000570,"Den Helder, v. Galenstraat",52.957332,4.756954,0,,,1,,
CXX:34000590,34000590,"Den Helder, Lombokstraat",52.956885,4.750487,0,,,1,,
CXX:34000610,34000610,"Den Helder, Gemini Ziekenhuis",52.958001,4.745843,0,stoparea:CXX:dhegem,,1,,
CXX:34000620,34000620,"Den Helder, Gemini Ziekenhuis",52.958492,4.746922,0,stoparea:CXX:dhegem,,,,
CXX:34000630,34000630,"Den Helder, Timorlaan",52.955671,4.74866,0,,,1,,
CXX:34000650,34000650,"Den Helder, Timorlaan",52.955539,4.749183,0,,,1,,
CXX:34000660,34000660,"Den Helder, Karveelstraat",52.932207,4.745389,0,stoparea:CXX:dhekar,,1,,
CXX:34000690,34000690,"Den Helder, Lombokstraat",52.956804,4.750503,0,,,1,,
CXX:34000710,34000710,"Den Helder, v. Galenstraat",52.957225,4.756956,0,,,1,,
CXX:34000740,34000740,"Den Helder, Marinapark",52.944278,4.774846,0,stoparea:CXX:dhemap,,1,,
CXX:34000760,34000760,"Den Helder, Marinapark",52.944323,4.776586,0,stoparea:CXX:dhemap,,0,,
CXX:34000830,34000830,"Den Helder, Nieuweweg",52.930511,4.75584,0,,,0,,
CXX:34000850,34000850,"Den Helder, Falga",52.938782,4.739685,0,,,0,,
CXX:34000860,34000860,"Den Helder, Falga",52.938532,4.740105,0,,,0,,
CXX:34000960,34000960,"Den Helder, Hendrik Baskeweg",52.940584,4.77649,0,stoparea:CXX:dhehbw,,1,,
CXX:34000980,34000980,"Den Helder, Harpoenierstraat",52.940726,4.77085,0,,,1,,
CXX:34001010,34001010,"Den Helder, Station Zuid Westzijde",52.933003,4.763344,0,stoparea:CXX:dhezuw,,1,,
CXX:34001011,34001011,"Den Helder, Station Zuid Westzijde",52.933003,4.763344,0,stoparea:CXX:dhezuw,,1,,
CXX:34001030,34001030,"Den Helder, Pastoor Koopmanweg",52.93311,4.754493,0,stoparea:CXX:dhepkw,,0,,
CXX:34001050,34001050,"Den Helder, Stadhuis",52.936792,4.752432,0,stoparea:CXX:dhesth,,1,,
CXX:34001110,34001110,"Den Helder, Scheldestraat",52.942086,4.745928,0,stoparea:CXX:dhesch,,0,,
CXX:34001120,34001120,"Den Helder, W.Barentszstraat",52.961451,4.749066,0,,,1,,
CXX:34001150,34001150,"Den Helder, Vechtstraat",52.945812,4.740294,0,,,0,,
CXX:34001200,34001200,"Den Helder, Scheldestraat",52.942672,4.746128,0,stoparea:CXX:dhesch,,0,,
CXX:34001230,34001230,"Den Helder, W.Barentszstraat",52.961504,4.748842,0,,,1,,
CXX:34001240,34001240,"Den Helder, Drs.Bijlweg",52.940267,4.750135,0,stoparea:CXX:dhedko,,0,,
CXX:34001260,34001260,"Den Helder, Stadhuis",52.936755,4.752269,0,stoparea:CXX:dhesth,,1,,
CXX:34001280,34001280,"Den Helder, Pastoor Koopmanweg",52.933035,4.754018,0,stoparea:CXX:dhepkw,,0,,
CXX:34001300,34001300,"Den Helder, De Lichtboei",52.938313,4.744437,0,stoparea:CXX:dhedli,,0,,
CXX:34001440,34001440,"Den Helder, Prins Hendriklaan",52.961511,4.760376,0,,,1,,
CXX:34001450,34001450,"Den Helder, Prins Hendriklaan",52.961575,4.760509,0,,,1,,
CXX:34001550,34001550,"Den Helder, Fregatstraat",52.935518,4.744448,0,,,1,,
CXX:34001560,34001560,"Den Helder, Fregatstraat",52.936157,4.744587,0,,,1,,
CXX:34002010,34002010,"Den Helder, Vinkenstraat",52.948651,4.765456,0,,,0,,
CXX:34002020,34002020,"Den Helder, Steiger TESO-boot",52.962992,4.777322,0,stoparea:CXX:dheste,,0,,
CXX:34002050,34002050,"Den Helder, Molenplein",52.964102,4.76601,0,,,0,,
CXX:34002070,34002070,"Den Helder, Marinemuseum",52.964282,4.77141,0,stoparea:CXX:dhecap,,0,,
CXX:34002090,34002090,"Den Helder, Steiger TESO-boot",52.962246,4.777436,0,stoparea:CXX:dheste,,0,,
CXX:34002100,34002100,"TESO, Veerboot",52.983406,4.785627,0,stoparea:CXX:tesveb,,,,
CXX:34002140,34002140,"Den Helder, Molenplein",52.964686,4.767713,0,,,0,,
CXX:34003080,34003080,"Den Helder, Duinroosstraat",52.939975,4.735978,0,stoparea:CXX:dhezkw,,0,,
CXX:34004200,34004200,"Den Helder, Sperwerstraat",52.952213,4.762697,0,stoparea:CXX:dhespe,,0,,
CXX:34005000,34005000,"Den Helder, Karveelstraat",52.932341,4.745268,0,stoparea:CXX:dhekar,,1,,
CXX:34005020,34005020,"Den Helder, Drs.Bijlweg",52.940112,4.751461,0,stoparea:CXX:dhedko,,0,,
CXX:34005130,34005130,"Den Helder, Station",52.956332,4.761582,0,stoparea:CXX:dhens,,,,
CXX:34005520,34005520,"Den Helder, Middenweg",52.953283,4.750867,0,stoparea:CXX:dhemid,,0,,
CXX:34006060,34006060,"Den Helder, Walvisvaardersweg",52.938079,4.769861,0,stoparea:CXX:dhewal,,1,,
CXX:34006070,34006070,"Den Helder, Walvisvaardersweg",52.938079,4.769846,0,stoparea:CXX:dhewal,,1,,
CXX:34006140,34006140,"Den Helder, Quelderduin",52.94709,4.76771,0,stoparea:CXX:dheinw,,1,,
CXX:34100020,34100020,"Julianadorp, Mariahoeve",52.908075,4.753236,0,stoparea:CXX:jdpmrh,,0,,
CXX:34100030,34100030,"Den Helder, Doggersvaart",52.926509,4.755347,0,stoparea:CXX:dhedgv,,0,,
CXX:34100040,34100040,"Julianadorp, Elsrijk",52.920566,4.754824,0,stoparea:CXX:jdpesr,,0,,
CXX:34100050,34100050,"Julianadorp, Elsrijk",52.920304,4.75459,0,stoparea:CXX:jdpesr,,0,,
CXX:34100060,34100060,"Den Helder, Doggersvaart",52.926897,4.755609,0,stoparea:CXX:dhedgv,,0,,
CXX:34100070,34100070,"Julianadorp, Middenvliet",52.913101,4.753653,0,stoparea:CXX:jdpmdv,,0,,
CXX:34102000,34102000,"Julianadorp, Middenvliet",52.915377,4.754096,0,stoparea:CXX:jdpmdv,,0,,
CXX:34130020,34130020,"'t Horntje, Veerhaven",53.004084,4.780351,0,stoparea:CXX:texvee,,1,,
CXX:34130040,34130040,"'t Horntje, Veerhaven",53.004542,4.780226,0,stoparea:CXX:texvee,,,,
CXX:34130100,34130100,"TESO, Veerboot",52.983306,4.785391,0,stoparea:CXX:tesveb,,,,
CXX:34132800,34132800,"Texel, Pontweg-Amaliaweg",53.022073,4.792604,0,stoparea:CXX:texamw,,0,,
CXX:34170030,34170030,"De Kooy, N99/Luchthaven Den Helder",52.922637,4.790599,0,stoparea:CXX:dheln9,,0,,
CXX:34170040,34170040,"De Kooy, N99/Luchthaven Den Helder",52.92297,4.790639,0,stoparea:CXX:dheln9,,1,,
CXX:34170060,34170060,"Den Helder, Airport Den Helder",52.921027,4.784792,0,stoparea:CXX:dhevlv,,0,,
CXX:34171020,34171020,"Breezand, Schorweg",52.903262,4.805058,0,,,0,,
CXX:34171040,34171040,"Breezand, Balgweg",52.909249,4.805572,0,stoparea:CXX:brzbgw,,0,,
CXX:34171090,34171090,"Breezand, Balgweg",52.908584,4.805596,0,stoparea:CXX:brzbgw,,0,,
CXX:34171101,34171101,"De Kooy, Kooypunt",52.912933,4.78538,0,stoparea:CXX:koykpt,,0,,
CXX:34171111,34171111,"De Kooy, Kooypunt",52.912711,4.785918,0,stoparea:CXX:koykpt,,0,,
CXX:34200010,34200010,"Julianadorp, Mariahoeve",52.907732,4.752988,0,stoparea:CXX:jdpmrh,,0,,
CXX:34200020,34200020,"Julianadorp, Kruiszwin",52.891962,4.739844,0,,,1,,
CXX:34200030,34200030,"Julianadorp, v.Foreestweg",52.898017,4.751123,0,stoparea:CXX:jdpveu,,1,,
CXX:34200040,34200040,"Julianadorp, Wierbalg",52.888474,4.738024,0,stoparea:CXX:jdpzww,,1,,
CXX:34200050,34200050,"Julianadorp, Tigchelaarstraat",52.898645,4.744263,0,stoparea:CXX:jdprie,,1,,
CXX:34200060,34200060,"Julianadorp, Middelzand",52.894931,4.742029,0,stoparea:CXX:jdpbmz,,0,,
CXX:34200070,34200070,"Julianadorp, Vogelzand",52.896046,4.74228,0,,,0,,
CXX:34200080,34200080,"Julianadorp, Vogelzand",52.896821,4.742685,0,,,0,,
CXX:34200090,34200090,"Julianadorp, Middelzand",52.894272,4.741534,0,stoparea:CXX:jdpbmz,,0,,
CXX:34200100,34200100,"Julianadorp, Tigchelaarstraat",52.8984,4.745485,0,stoparea:CXX:jdprie,,1,,
CXX:34200120,34200120,"Julianadorp, v.Foreestweg",52.897882,4.751169,0,stoparea:CXX:jdpveu,,1,,
CXX:34200130,34200130,"Julianadorp, Kruiszwin",52.891589,4.738899,0,,,1,,
CXX:34200140,34200140,"Julianadorp, Dorperweerth",52.884574,4.739701,0,stoparea:CXX:jdpdrb,,1,,
CXX:34200150,34200150,"Julianadorp, Wierbalg",52.88833,4.737818,0,stoparea:CXX:jdpzww,,1,,
CXX:34200160,34200160,"Julianadorp, Dorperweerth",52.884566,4.739775,0,stoparea:CXX:jdpdrb,,,,
CXX:34200190,34200190,"Julianadorp, Dorperweerth",52.884377,4.739852,0,stoparea:CXX:jdpdrb,,1,,
CXX:34200200,34200200,"Julianadorp, Dorperweerth",52.884386,4.739793,0,stoparea:CXX:jdpdrb,,,,
CXX:34200250,34200250,"Julianadorp, Ooghduyne",52.882468,4.725916,0,stoparea:CXX:jdpoog,,0,,
CXX:34200260,34200260,"Julianadorp, Ooghduyne",52.882283,4.726706,0,stoparea:CXX:jdpoog,,0,,
CXX:34200270,34200270,"Julianadorp, Zanddijk",52.883029,4.716965,0,stoparea:CXX:jdpzdd,,0,,
CXX:34201020,34201020,"Julianadorp, De Slenk",52.892081,4.745206,0,,,1,,
CXX:34201040,34201040,"Julianadorp, Zuiderhaaks",52.891914,4.74928,0,stoparea:CXX:jdpzdh,,0,,
CXX:34201070,34201070,"Julianadorp, Akkerbouwstraat",52.890929,4.756754,0,stoparea:CXX:jdpjuc,,1,,
CXX:34202020,34202020,"Julianadorp, Zuiderhaaks",52.892012,4.74913,0,stoparea:CXX:jdpzdh,,1,,
CXX:34202040,34202040,"Julianadorp, De Slenk",52.892186,4.7447,0,,,1,,
CXX:34202100,34202100,"Julianadorp, Malzwin",52.88352,4.745852,0,stoparea:CXX:jdpmal,,0,,
CXX:34202200,34202200,"Julianadorp, Malzwin",52.883724,4.747052,0,stoparea:CXX:jdpmal,,0,,
CXX:34202300,34202300,"Julianadorp, Zwanenbalg",52.884101,4.735311,0,,,0,,
CXX:34202400,34202400,"Julianadorp, Zwanenbalg",52.883886,4.735492,0,,,0,,
CXX:34203010,34203010,"Julianadorp, Doorzwin",52.888119,4.750539,0,,,0,,
CXX:34203030,34203030,"Julianadorp, Langevliet",52.884307,4.75006,0,stoparea:CXX:jdplan,,,,
CXX:34203041,34203041,"Julianadorp, Noorderhaven",52.882968,4.753452,0,stoparea:CXX:jdpnhv,,0,,
CXX:34203051,34203051,"Julianadorp, Noorderhaven",52.882887,4.753512,0,stoparea:CXX:jdpnhv,,0,,
CXX:34203060,34203060,"Julianadorp, Langevliet",52.884416,4.750311,0,stoparea:CXX:jdplan,,1,,
CXX:34203080,34203080,"Julianadorp, Doorzwin",52.888165,4.750717,0,,,0,,
CXX:34230010,34230010,"Texel, Pontweg-Amaliaweg",53.02317,4.794422,0,stoparea:CXX:texamw,,0,,
CXX:34230020,34230020,"Texel, Pontweg-Leemkuil",53.042194,4.799933,0,stoparea:CXX:texzw6,,0,,
CXX:34230030,34230030,"Texel, Pontweg-Redoute",53.028794,4.801456,0,stoparea:CXX:texrdo,,0,,
CXX:34230040,34230040,"Texel, Pontweg-Zuidhaffel",53.038764,4.804318,0,,,0,,
CXX:34230050,34230050,"Texel, Pontweg-Zuidhaffel",53.038453,4.804889,0,,,0,,
CXX:34230060,34230060,"Texel, Pontweg-Redoute",53.028277,4.800598,0,stoparea:CXX:texrdo,,0,,
CXX:34270010,34270010,"Breezand, Schorweg",52.90287,4.80588,0,,,0,,
CXX:34270020,34270020,"Anna Paulowna, Drie Bruggen",52.87302,4.802847,0,,,0,,
CXX:34270030,34270030,"Breezand, J.C.de Leeuwweg",52.900051,4.81378,0,,,0,,
CXX:34270040,34270040,"Anna Paulowna, Gelderse Buurt",52.876042,4.794221,0,stoparea:CXX:anpgdb,,0,,
CXX:34270050,34270050,"Breezand, Spoorwegovergang",52.89626,4.810412,0,,,0,,
CXX:34270060,34270060,"Breezand, Zandvaart",52.880815,4.796414,0,stoparea:CXX:brzzdv,,0,,
CXX:34270070,34270070,"Breezand, R.K. Kerk",52.8931,4.807452,0,,,0,,
CXX:34270080,34270080,"Breezand, Tulpenstraat",52.885077,4.800516,0,,,0,,
CXX:34270090,34270090,"Breezand, Ceresplein",52.888029,4.803106,0,stoparea:CXX:brzcer,,0,,
CXX:34270100,34270100,"Breezand, Ceresplein",52.888066,4.803314,0,stoparea:CXX:brzcer,,0,,
CXX:34270110,34270110,"Breezand, Tulpenstraat",52.884905,4.800192,0,,,0,,
CXX:34270120,34270120,"Breezand, R.K. Kerk",52.893038,4.807646,0,,,0,,
CXX:34270130,34270130,"Breezand, Zandvaart",52.880915,4.796457,0,stoparea:CXX:brzzdv,,0,,
CXX:34270140,34270140,"Breezand, Spoorwegovergang",52.896441,4.810751,0,,,0,,
CXX:34270150,34270150,"Anna Paulowna, Gelderse Buurt",52.875862,4.794298,0,stoparea:CXX:anpgdb,,0,,
CXX:34270160,34270160,"Breezand, J.C.de Leeuwweg",52.900265,4.813465,0,,,0,,
CXX:34300030,34300030,"'t Zand, Bollenschuur v.Rijn",52.86598,4.764895,0,,,0,,
CXX:34300060,34300060,"'t Zand, Bollenschuur v.Rijn",52.865828,4.76509,0,,,0,,
CXX:34310080,34310080,"Callantsoog, Groote Keeten",52.862389,4.711074,0,stoparea:CXX:clogrk,,1,,
CXX:34310090,34310090,"Callantsoog, Groote Keeten",52.862553,4.711384,0,stoparea:CXX:clogrk,,1,,
CXX:34310280,34310280,"Julianadorp, Zanddijk",52.883188,4.716546,0,stoparea:CXX:jdpzdd,,0,,
CXX:34330010,34330010,"Den Burg, Elemert",53.052227,4.797232,0,stoparea:CXX:dbuele,,1,,
CXX:34330011,34330011,"Den Burg, Elemert",53.052164,4.797159,0,stoparea:CXX:dbuele,,1,,
CXX:34330012,34330012,"Den Burg, Elemert",53.052101,4.7971,0,stoparea:CXX:dbuele,,1,,
CXX:34330020,34330020,"Oudeschild, Vliegwiel",53.044084,4.850455,0,stoparea:CXX:odsvlw,,0,,
CXX:34330030,34330030,"Den Burg, De 99",53.052853,4.803935,0,,,0,,
CXX:34330031,34330031,"Den Burg, De 99",53.052853,4.80395,0,,,1,,
CXX:34330050,34330050,"Den Burg, Meester Kraaistraat",53.054903,4.804251,0,,,1,,
CXX:34330051,34330051,"Den Burg, Meester Kraaistraat",53.054912,4.804251,0,,,1,,
CXX:34330070,34330070,"Den Burg, Buytengors",53.057245,4.801534,0,,,0,,
CXX:34330071,34330071,"Den Burg, Buytengors",53.057253,4.80149,0,,,,,
CXX:34330080,34330080,"Texel, Pontweg-Rozendijk",53.064422,4.775883,0,stoparea:CXX:texz11,,0,,
CXX:34330090,34330090,"Den Burg, Wagemakerstraat",53.059226,4.796929,0,stoparea:CXX:dbudws,,1,,
CXX:34330091,34330091,"Den Burg, Wagemakerstraat",53.059226,4.796929,0,,,1,,
CXX:34330101,34330101,"Den Burg, VVV Texel",53.049673,4.795075,0,stoparea:CXX:dbuvvv,,1,,
CXX:34330110,34330110,"Den Burg, Noordwester",53.058445,4.791674,0,,,0,,
CXX:34330130,34330130,"Den Burg, Sint Jan",53.056141,4.7909,0,stoparea:CXX:dbusja,,1,,
CXX:34330150,34330150,"Den Burg, Gasthuisstraat",53.054431,4.790461,0,,,1,,
CXX:34330170,34330170,"Oudeschild, Vliegwiel",53.043779,4.850444,0,stoparea:CXX:odsvlw,,0,,
CXX:34330240,34330240,"Den Burg, Gemeentehuis",53.051462,4.802433,0,,,1,,
CXX:34330250,34330250,"Den Burg, OSG De Hogeberg",53.051105,4.799231,0,,,1,,
CXX:34330260,34330260,"Texel, De Zandkoog",53.056052,4.785681,0,,,0,,
CXX:34330270,34330270,"Texel, De Zandkoog",53.055551,4.78624,0,,,0,,
CXX:34331020,34331020,"De Waal, Rotonde",53.071449,4.825275,0,stoparea:CXX:texdor,,1,,
CXX:34331040,34331040,"Oudeschild, De Ruyterstraat",53.036961,4.848963,0,,,1,,
CXX:34331060,34331060,"Oudeschild, Puzzelweg",53.04069,4.842968,0,,,0,,
CXX:34331080,34331080,"Oudeschild, Bierbrouwerij",53.045179,4.826584,0,stoparea:CXX:odsbrw,,0,,
CXX:34331090,34331090,"Den Burg, Schilderend",53.052073,4.804229,0,stoparea:CXX:dbusch,,0,,
CXX:34331100,34331100,"Texel, Schilderend",53.046911,4.814557,0,stoparea:CXX:texkee,,0,,
CXX:34331110,34331110,"Texel, Reijer Keijserstraat",53.050334,4.807071,0,stoparea:CXX:texjpl,,0,,
CXX:34331120,34331120,"Texel, Reijer Keijserstraat",53.050531,4.806979,0,stoparea:CXX:texjpl,,0,,
CXX:34331130,34331130,"Texel, Schilderend",53.0469,4.814259,0,stoparea:CXX:texkee,,0,,
CXX:34331140,34331140,"Den Burg, Schilderend",53.052127,4.804362,0,stoparea:CXX:dbusch,,0,,
CXX:34331150,34331150,"Oudeschild, Bierbrouwerij",53.04501,4.826914,0,stoparea:CXX:odsbrw,,0,,
CXX:34331170,34331170,"Oudeschild, Puzzelweg",53.040625,4.842611,0,,,0,,
CXX:34331180,34331180,"Oudeschild, Heemskerckstraat",53.039451,4.847188,0,stoparea:CXX:odshmk,,1,,
CXX:34331190,34331190,"Oudeschild, Museum Kaapskil",53.039338,4.847964,0,stoparea:CXX:odshmk,,1,,
CXX:34331210,34331210,"Oudeschild, De Ruyterstraat",53.036907,4.849128,0,,,1,,
CXX:34331230,34331230,"Oudeschild, Haven",53.039298,4.849158,0,,,0,,
CXX:34331240,34331240,"Oudeschild, Haven",53.039487,4.84923,0,,,1,,
CXX:34332700,34332700,"Texel, Pontweg-Leemkuil",53.041999,4.800472,0,stoparea:CXX:texzw6,,0,,
CXX:34380010,34380010,"Anna Paulowna, Drie Bruggen",52.872956,4.802595,0,,,0,,
CXX:34380020,34380020,"Van Ewijcksluis, Oude Veer",52.884986,4.870061,0,stoparea:CXX:ewsove,,1,,
CXX:34380030,34380030,"Anna Paulowna, Rooverhof",52.871184,4.807832,0,,,0,,
CXX:34380050,34380050,"Anna Paulowna, Station",52.86767,4.811635,0,stoparea:CXX:anpns,,1,,
CXX:34380060,34380060,"Anna Paulowna, De Ontmoeting",52.861387,4.818845,0,,,0,,
CXX:34380160,34380160,"Anna Paulowna, Station",52.86767,4.811635,0,stoparea:CXX:anpns,,1,,
CXX:34380180,34380180,"Anna Paulowna, Rooverhof",52.871301,4.80783,0,,,0,,
CXX:34381010,34381010,"Anna Paulowna, Geerligslaan",52.86518,4.824528,0,stoparea:CXX:klsgll,,1,,
CXX:34381020,34381020,"Anna Paulowna, Oude Gemeentehuis",52.861874,4.834475,0,stoparea:CXX:kslgem,,0,,
CXX:34381030,34381030,"Anna Paulowna, Oude Gemeentehuis",52.861668,4.834611,0,stoparea:CXX:kslgem,,0,,
CXX:34381040,34381040,"Anna Paulowna, Geerligslaan",52.865332,4.824511,0,stoparea:CXX:klsgll,,0,,
CXX:34400020,34400020,"Stolpervlotbrug, De Stolpen",52.809978,4.735243,0,stoparea:CXX:svbdst,,1,,
CXX:34400050,34400050,"'t Zand, Vlotbrug",52.837332,4.75159,0,stoparea:CXX:tzavlo,,0,,
CXX:34400080,34400080,"'t Zand, Vlotbrug",52.837323,4.751531,0,stoparea:CXX:tzavlo,,0,,
CXX:34400530,34400530,"Oudesluis, Sportlaan",52.832854,4.809304,0,stoparea:CXX:oslnow,,0,,
CXX:34400540,34400540,"Oudesluis, Sportlaan",52.832943,4.809288,0,stoparea:CXX:oslnow,,0,,
CXX:34401180,34401180,"Oudesluis, Slikkerdijk",52.82787,4.815764,0,stoparea:CXX:oslsld,,0,,
CXX:34401190,34401190,"Oudesluis, Slikkerdijk",52.827862,4.815928,0,stoparea:CXX:oslsld,,0,,
CXX:34430010,34430010,"Oosterend, Mulderstraat",53.086176,4.871024,0,,,1,,
CXX:34430030,34430030,"Oosterend, De Bijenkorf",53.085679,4.874463,0,stoparea:CXX:oedbij,,1,,
CXX:34430050,34430050,"Oosterend, Achtertune",53.0832,4.87682,0,,,1,,
CXX:34430060,34430060,"Texel, Overtoom",53.120862,4.881471,0,stoparea:CXX:texovt,,0,,
CXX:34430070,34430070,"Oosterend, Zevenhuizen",53.088812,4.882188,0,stoparea:CXX:oedzev,,0,,
CXX:34430080,34430080,"Texel, Stuifweg-Prins Hendrik",53.115987,4.897613,0,stoparea:CXX:texstp,,0,,
CXX:34430090,34430090,"Oosterend, Oosterweg-Zwinweg",53.094461,4.88566,0,stoparea:CXX:oedraa,,0,,
CXX:34430100,34430100,"Oost, Oosterweg-Oost",53.09613,4.889462,0,stoparea:CXX:oosowd,,1,,
CXX:34430110,34430110,"Oost, Oosterweg-Oost",53.096012,4.889314,0,stoparea:CXX:oosowd,,1,,
CXX:34430120,34430120,"Oosterend, Oosterweg-Zwinweg",53.094306,4.885348,0,stoparea:CXX:oedraa,,0,,
CXX:34430130,34430130,"Texel, Stuifweg-Prins Hendrik",53.116094,4.897597,0,stoparea:CXX:texstp,,0,,
CXX:34430140,34430140,"Oosterend, Zevenhuizen",53.08848,4.882311,0,stoparea:CXX:oedzev,,0,,
CXX:34430150,34430150,"Texel, Overtoom",53.121067,4.881006,0,stoparea:CXX:texovt,,0,,
CXX:34430160,34430160,"Oosterend, Achtertune",53.083325,4.876744,0,,,1,,
CXX:34430180,34430180,"Oosterend, De Bijenkorf",53.085769,4.874462,0,stoparea:CXX:oedbij,,1,,
CXX:34430200,34430200,"Oosterend, Mulderstraat",53.086293,4.870993,0,,,1,,
CXX:34430210,34430210,"Oosterend, Molenbuurt",53.080206,4.84395,0,stoparea:CXX:oedmlb,,0,,
CXX:34430220,34430220,"Oosterend, Molenbuurt",53.080133,4.843503,0,stoparea:CXX:oedmlb,,0,,
CXX:34430230,34430230,"Oost, Loswal",53.097985,4.892681,0,stoparea:CXX:ooslsw,,0,,
CXX:34430240,34430240,"Oost, Loswal",53.097893,4.89207,0,stoparea:CXX:ooslsw,,0,,
CXX:34430250,34430250,"Texel, Stuifweg-Avanti",53.117859,4.887585,0,,,0,,
CXX:34430260,34430260,"Texel, Stuifweg-Avanti",53.118002,4.887344,0,,,0,,
CXX:34430270,34430270,"Oosterend, Harkebuurt",53.085825,4.862506,0,,,0,,
CXX:34430280,34430280,"Oosterend, Harkebuurt",53.085696,4.861971,0,,,0,,
CXX:34431230,34431230,"De Waal, Rotonde",53.071522,4.825483,0,stoparea:CXX:texdor,,1,,
CXX:34440010,34440010,"Texel, Pontweg-Pelikaanweg",53.080294,4.77275,0,,,0,,
CXX:34440030,34440030,"Texel, Pontweg-Pijpersdijk",53.08807,4.773312,0,,,0,,
CXX:34440050,34440050,"Texel, Bosch en Zee",53.093425,4.767996,0,stoparea:CXX:texz17,,1,,
CXX:34440070,34440070,"De Koog, Dorpsstraat",53.096672,4.763307,0,stoparea:CXX:dkodps,,1,,
CXX:34440080,34440080,"De Koog, Brink",53.097577,4.759442,0,,,1,,
CXX:34440090,34440090,"De Koog, Nikadel",53.099079,4.764915,0,stoparea:CXX:dkonik,,1,,
CXX:34440110,34440110,"De Koog, Badweg",53.099842,4.761216,0,stoparea:CXX:dkobad,,1,,
CXX:34440200,34440200,"De Koog, Epelaan",53.093059,4.75806,0,,,1,,
CXX:34440220,34440220,"De Koog, Maartenhuis",53.089339,4.756427,0,stoparea:CXX:dkomaa,,1,,
CXX:34441560,34441560,"Texel, Californieweg-Californie",53.076746,4.754103,0,,,1,,
CXX:34441580,34441580,"Texel, Californieweg-So What",53.075836,4.758772,0,,,1,,
CXX:34441600,34441600,"Texel, Ruijslaan-Ecomare",53.077687,4.748538,0,stoparea:CXX:texeco,,1,,
CXX:34441670,34441670,"Texel, Pontweg-Schumakersweg",53.091409,4.770966,0,stoparea:CXX:texzwe,,0,,
CXX:34442700,34442700,"Texel, Pontweg-Rozendijk",53.064603,4.776135,0,stoparea:CXX:texz11,,0,,
CXX:34442900,34442900,"Texel, Gerritslanderdijkje",53.069192,4.773713,0,,,0,,
CXX:34443200,34443200,"Texel, Pontweg-Californieweg",53.074908,4.772244,0,stoparea:CXX:texz13,,0,,
CXX:34445700,34445700,"Texel, Pontweg-Californieweg",53.074631,4.772412,0,,,0,,
CXX:34446000,34446000,"Texel, Gerritslanderdijkje",53.069181,4.773429,0,,,0,,
CXX:34470010,34470010,"Westerland, Rode Keet",52.890219,4.911914,0,stoparea:CXX:wslrdk,,0,,
CXX:34470020,34470020,"Van Ewijcksluis, Oude Veer",52.885609,4.8709,0,stoparea:CXX:ewsove,,0,,
CXX:34480060,34480060,"Wieringerwaard, Walingsweg",52.835656,4.851367,0,stoparea:CXX:wrdwaw,,0,,
CXX:34480080,34480080,"Wieringerwaard, Wapen van Wieringerwaard",52.83483,4.859494,0,stoparea:CXX:wrdwap,,0,,
CXX:34480100,34480100,"Wieringerwaard, Wapen van Wieringerwaard",52.834995,4.860353,0,stoparea:CXX:wrdwap,,0,,
CXX:34480110,34480110,"Wieringerwaard, Wapen van Wieringerwaard",52.835245,4.859905,0,stoparea:CXX:wrdwap,,0,,
CXX:34480120,34480120,"Wieringerwaard, Walingsweg",52.835975,4.85031,0,stoparea:CXX:wrdwaw,,0,,
CXX:34480200,34480200,"Wieringerwaard, Iepenlaan",52.837557,4.860485,0,,,0,,
CXX:34480210,34480210,"Wieringerwaard, Iepenlaan",52.837135,4.860505,0,,,0,,
CXX:34481010,34481010,"Wieringerwaard, Nieuwesluis",52.832133,4.888625,0,stoparea:CXX:wrdnws,,0,,
CXX:34481011,34481011,"Wieringerwaard, Nieuwesluis",52.832025,4.888597,0,stoparea:CXX:wrdnws,,0,,
CXX:34501010,34501010,"Zijpe, Westfriesedijk",52.808229,4.801709,0,stoparea:CXX:zypwfd,,0,,
CXX:34501020,34501020,"Zijpe, Westfriesedijk",52.8082,4.801369,0,stoparea:CXX:zypwfd,,0,,
CXX:34501030,34501030,"Zijpe, Keinsmerbrug",52.8152,4.788652,0,stoparea:CXX:zypkei,,0,,
CXX:34501040,34501040,"Zijpe, Keinsmerbrug",52.81519,4.788445,0,stoparea:CXX:zypkei,,0,,
CXX:34510010,34510010,"Callantsoog, Stuyvezandeweg",52.840272,4.696857,0,stoparea:CXX:clostu,,0,,
CXX:34510020,34510020,"Callantsoog, Stuyvezandeweg",52.840407,4.696958,0,stoparea:CXX:clostu,,0,,
CXX:34510030,34510030,"Callantsoog, Duinroosweg",52.837808,4.699626,0,,,0,,
CXX:34510040,34510040,"Callantsoog, Duinroosweg",52.8378,4.699819,0,,,1,,
CXX:34510050,34510050,"Callantsoog, Jewelweg",52.836365,4.698773,0,stoparea:CXX:clovvv,,1,,
CXX:34510060,34510060,"Callantsoog, Jewelweg",52.836265,4.698671,0,stoparea:CXX:clovvv,,0,,
CXX:34510530,34510530,"Callantsoog, Zeeweg",52.834292,4.691594,0,stoparea:CXX:clowij,,1,,
CXX:34510550,34510550,"Callantsoog, Zwanenwater",52.829721,4.701489,0,stoparea:CXX:clozwa,,0,,
CXX:34510560,34510560,"Callantsoog, Buitenzorg",52.81535,4.721887,0,stoparea:CXX:clobuz,,0,,
CXX:34510570,34510570,"Callantsoog, Bosweg",52.816975,4.716864,0,,,0,,
CXX:34510580,34510580,"Callantsoog, Bosweg",52.817146,4.716772,0,,,0,,
CXX:34510590,34510590,"Callantsoog, Buitenzorg",52.815181,4.722172,0,stoparea:CXX:clobuz,,0,,
CXX:34510600,34510600,"Callantsoog, Zwanenwater",52.83022,4.70074,0,stoparea:CXX:clozwa,,1,,
CXX:34510620,34510620,"Callantsoog, Zeeweg",52.834437,4.691785,0,stoparea:CXX:clowij,,0,,
CXX:34510630,34510630,"Stolpervlotbrug, De Stolpen",52.809978,4.735243,0,stoparea:CXX:svbdst,,1,,
CXX:34530010,34530010,"Texel, Postweg-Oorsprongweg",53.135675,4.847379,0,stoparea:CXX:texblw,,0,,
CXX:34530030,34530030,"Texel, Postweg-Rio Grande",53.1473,4.860985,0,stoparea:CXX:texrio,,0,,
CXX:34530060,34530060,"De Cocksdorp, Vuurtorenweg-Krimweg",53.156704,4.864085,0,,,0,,
CXX:34530070,34530070,"De Cocksdorp, Vuurtorenweg-Krimweg",53.15666,4.864295,0,,,0,,
CXX:34530080,34530080,"De Cocksdorp, Vuurtorenweg-Molenbos",53.152063,4.865187,0,stoparea:CXX:dcomlb,,0,,
CXX:34530090,34530090,"De Cocksdorp, Vuurtorenweg-Molenbos",53.152037,4.865412,0,stoparea:CXX:dcomlb,,0,,
CXX:34530100,34530100,"Texel, Postweg-Rio Grande",53.147372,4.860924,0,stoparea:CXX:texrio,,0,,
CXX:34530120,34530120,"Texel, Postweg-Oorsprongweg",53.13599,4.847555,0,stoparea:CXX:texblw,,0,,
CXX:34530130,34530130,"De Cocksdorp, Klimpstraat",53.157624,4.869112,0,stoparea:CXX:dcokli,,1,,
CXX:34530150,34530150,"De Cocksdorp, Teenstrapad",53.157813,4.871083,0,,,0,,
CXX:34530170,34530170,"Midden Eierland, Midden-Eierland",53.128585,4.863513,0,stoparea:CXX:meidrp,,0,,
CXX:34530190,34530190,"De Cocksdorp, Langeveldstraat",53.158087,4.874189,0,,,1,,
CXX:34530320,34530320,"De Cocksdorp, Vuurtorenweg-Paal 33",53.174227,4.86836,0,stoparea:CXX:dcored,,1,,
CXX:34530340,34530340,"De Cocksdorp, Schelpenoord",53.173727,4.862803,0,,,0,,
CXX:34530360,34530360,"De Cocksdorp, Vuurtorenweg-Axel",53.167745,4.861514,0,stoparea:CXX:dcostk,,0,,
CXX:34534000,34534000,"Midden Eierland, Midden-Eierland",53.128451,4.863724,0,stoparea:CXX:meidrp,,0,,
CXX:34570050,34570050,"Westerland, Hollebalgweg",52.898007,4.93889,0,stoparea:CXX:wslhbw,,1,,
CXX:34570120,34570120,"Westerland, Hollebalgweg",52.898068,4.938533,0,stoparea:CXX:wslhbw,,1,,
CXX:34570230,34570230,"Hippolytushoef, N99",52.903888,4.96212,0,stoparea:CXX:hplkpa,,0,,
CXX:34570240,34570240,"Hippolytushoef, N99",52.904363,4.9643,0,stoparea:CXX:hplkpa,,0,,
CXX:34570250,34570250,"Hippolytushoef, De Weel",52.914934,4.967513,0,stoparea:CXX:hpldwe,,0,,
CXX:34570260,34570260,"Hippolytushoef, De Weel",52.914997,4.967557,0,stoparea:CXX:hpldwe,,0,,
CXX:34570270,34570270,"Hippolytushoef, Mering",52.910269,4.970025,0,stoparea:CXX:hplmrg,,0,,
CXX:34570280,34570280,"Hippolytushoef, Mering",52.910377,4.970113,0,stoparea:CXX:hplmrg,,0,,
CXX:34571020,34571020,"Westerland, Rode Keet",52.889987,4.912228,0,stoparea:CXX:wslrdk,,0,,
CXX:34571070,34571070,"Westerland, De Dentele",52.89421,4.930504,0,,,0,,
CXX:34571080,34571080,"Westerland, De Dentele",52.893813,4.930151,0,,,0,,
CXX:34600020,34600020,"Schagen, Witte Paal",52.783091,4.80873,0,stoparea:CXX:sgnwpl,,0,,
CXX:34600050,34600050,"Schagen, Station",52.785202,4.804893,0,stoparea:CXX:sgnns,,0,,
CXX:34600070,34600070,"Schagen, Witte Paal",52.783059,4.80956,0,stoparea:CXX:sgnwpl,,0,,
CXX:34600071,34600071,"Schagen, Bioscoop Cinemagnus",52.782474,4.80939,0,,,0,,
CXX:34600100,34600100,"Schagen, Muggenburg",52.784107,4.797911,0,stoparea:CXX:sgnmub,,,,
CXX:34600110,34600110,"Schagen, Muggenburg",52.78417,4.797955,0,stoparea:CXX:sgnmub,,,,
CXX:34600140,34600140,"Schagen, Crematorium",52.77479,4.82437,0,stoparea:CXX:sgncre,,0,,
CXX:34600150,34600150,"Schagen, Noorderkwartier",52.775834,4.807951,0,stoparea:CXX:sgnndk,,1,,
CXX:34600170,34600170,"Schagen, Noorderkwartier",52.775582,4.807866,0,stoparea:CXX:sgnndk,,1,,
CXX:34600180,34600180,"Schagen, Koperwiek",52.783034,4.784645,0,stoparea:CXX:sgnpol,,0,,
CXX:34600190,34600190,"Schagen, Koperwiek",52.783006,4.784438,0,stoparea:CXX:sgnpol,,0,,
CXX:34600210,34600210,"Schagen, Dagopvang",52.794483,4.806282,0,,,,,
CXX:34600220,34600220,"Schagen, Dagopvang",52.794465,4.806356,0,,,,,
CXX:34600240,34600240,"Schagen, Kaagweg",52.784036,4.809029,0,,,,,
CXX:34600250,34600250,"Schagen, Langestraat/Centrum",52.789442,4.802702,0,,,,,
CXX:34600260,34600260,"Schagen, Vliedlaan",52.790429,4.811642,0,stoparea:CXX:sgnvln,,,,
CXX:34600270,34600270,"Schagen, Langestraat/Centrum",52.789423,4.802583,0,,,,,
CXX:34600290,34600290,"Schagen, Vliedlaan",52.790338,4.811451,0,stoparea:CXX:sgnvln,,,,
CXX:34600310,34600310,"Schagen, Witte Paal",52.780984,4.80981,0,,,0,,
CXX:34600320,34600320,"Schagen, Witte Paal",52.781055,4.809646,0,,,0,,
CXX:34600330,34600330,"Schagen, Crematorium",52.774441,4.817202,0,stoparea:CXX:sgncre,,0,,
CXX:34600340,34600340,"Schagen, Crematorium",52.774391,4.818018,0,stoparea:CXX:sgncre,,0,,
CXX:34600350,34600350,"Schagen, Bedrijventerr.Witte Paal",52.779313,4.813567,0,,,0,,
CXX:34600360,34600360,"Schagen, Bedrijventerr.Witte Paal",52.779447,4.813565,0,,,0,,
CXX:34600370,34600370,"Schagen , Clusius College",52.786507,4.810894,0,,,,,
CXX:34600380,34600380,"Schagen, Clusius College",52.786445,4.811028,0,,,,,
CXX:34600410,34600410,"Schagen, Zaagmolen",52.783514,4.790701,0,,,0,,
CXX:34600420,34600420,"Schagen, Zaagmolen",52.783513,4.790582,0,,,0,,
CXX:34601010,34601010,"Schagen, Lagedijk",52.795841,4.77415,0,stoparea:CXX:sgnlgd,,0,,
CXX:34601030,34601030,"Schagen, Zijperweg",52.792852,4.781886,0,,,1,,
CXX:34601040,34601040,"Schagen, Halerweg",52.790341,4.786502,0,,,1,,
CXX:34601050,34601050,"Schagen, Halerweg",52.790429,4.786056,0,,,1,,
CXX:34601060,34601060,"Schagen, Zijperweg",52.793299,4.781435,0,,,1,,
CXX:34601110,34601110,"Schagen, Station",52.785121,4.804909,0,stoparea:CXX:sgnns,,0,,
CXX:34601120,34601120,"Schagen, Station",52.785076,4.804909,0,stoparea:CXX:sgnns,,0,,
CXX:34601140,34601140,"Schagen, Oude Slotstraat",52.785125,4.798461,0,stoparea:CXX:sgnoss,,0,,
CXX:34602010,34602010,"Schagen, Oude Slotstraat",52.785127,4.798861,0,stoparea:CXX:sgnoss,,0,,
CXX:34602020,34602020,"St.Maarten, Valkkoog",52.77798,4.771688,0,stoparea:CXX:smtvkg,,0,,
CXX:34602030,34602030,"Schagen, Hofstraat",52.785195,4.796281,0,stoparea:CXX:sgnhof,,0,,
CXX:34602040,34602040,"Schagen, Zwembad De Wiel",52.783255,4.776786,0,stoparea:CXX:sgnzdw,,1,,
CXX:34602110,34602110,"Schagen, Zwembad De Wiel",52.783379,4.776444,0,stoparea:CXX:sgnzdw,,0,,
CXX:34602120,34602120,"Schagen, Hofstraat",52.784996,4.795957,0,stoparea:CXX:sgnhof,,0,,
CXX:34602130,34602130,"Schagen, Schagerwiel",52.784217,4.778744,0,,,0,,
CXX:34602140,34602140,"Schagen, Oude Slotstraat",52.785433,4.80065,0,stoparea:CXX:sgnoss,,0,,
CXX:34602150,34602150,"Schagen, Schagerwiel",52.784048,4.779028,0,,,0,,
CXX:34602580,34602580,"Schagen, Magnushof",52.794227,4.801719,0,stoparea:CXX:sgnmag,,,,
CXX:34602590,34602590,"Schagen, Magnushof",52.794237,4.801852,0,stoparea:CXX:sgnmag,,,,
CXX:34610020,34610020,"Schagen, Lagedijk",52.795976,4.774178,0,stoparea:CXX:sgnlgd,,0,,
CXX:34610040,34610040,"Schagerbrug, Gemeentehuis",52.799869,4.765909,0,stoparea:CXX:sgbgmh,,0,,
CXX:34610050,34610050,"Schagerbrug, Schagerbrug",52.801939,4.759622,0,,,0,,
CXX:34610060,34610060,"Schagerbrug, Schagerbrug",52.802021,4.759784,0,,,0,,
CXX:34610070,34610070,"Schagerbrug, Gemeentehuis",52.799761,4.765806,0,stoparea:CXX:sgbgmh,,0,,
CXX:34670020,34670020,"Oosterland, Oosterland",52.932014,5.009898,0,stoparea:CXX:oosmuz,,0,,
CXX:34670040,34670040,"Oosterland, Vatropperweg",52.930655,5.003426,0,,,0,,
CXX:34670060,34670060,"Oosterland, Hofweg",52.922885,4.980031,0,stoparea:CXX:ooshfw,,0,,
CXX:34670070,34670070,"Oosterland, Smerperweg",52.925333,4.991844,0,,,0,,
CXX:34670080,34670080,"Oosterland, Hofweg",52.922073,4.978997,0,stoparea:CXX:ooshfw,,0,,
CXX:34670090,34670090,"Oosterland, Vatropperweg",52.930665,5.003902,0,,,0,,
CXX:34670110,34670110,"Oosterland, Oosterland",52.931934,5.010182,0,stoparea:CXX:oosmuz,,0,,
CXX:34670510,34670510,"Oosterland, Smerperweg",52.925296,4.991592,0,,,0,,
CXX:34671010,34671010,"Den Oever, Molgerdijk",52.933831,5.018985,0,stoparea:CXX:oevmgd,,0,,
CXX:34680060,34680060,"Kolhorn, Waardpolder",52.795863,4.893026,0,stoparea:CXX:kolwaa,,1,,
CXX:34680070,34680070,"Kolhorn, Waardpolder",52.795719,4.892998,0,stoparea:CXX:kolwaa,,1,,
CXX:34680120,34680120,"Kolhorn, Waardweg",52.792392,4.914799,0,stoparea:CXX:kolwdw,,0,,
CXX:34680130,34680130,"Kolhorn, Torenstraat",52.79395,4.88903,0,stoparea:CXX:koltor,,0,,
CXX:34680140,34680140,"Kolhorn, Torenstraat",52.794149,4.889265,0,stoparea:CXX:koltor,,0,,
CXX:34681010,34681010,"Barsingerhorn, Leekerweg",52.784729,4.861669,0,stoparea:CXX:bahlkw,,0,,
CXX:34681020,34681020,"Winkel, Wilgenstraat",52.75965,4.896308,0,stoparea:CXX:wklmav,,0,,
CXX:34681030,34681030,"Barsingerhorn, Weidestraat",52.783381,4.861833,0,stoparea:CXX:bahwei,,0,,
CXX:34681040,34681040,"Lutjewinkel, Mientweg",52.767818,4.885178,0,stoparea:CXX:ljwmwg,,0,,
CXX:34681060,34681060,"Lutjewinkel, Plantsoendwarsstraat",52.770427,4.881652,0,stoparea:CXX:lutpds,,0,,
CXX:34681070,34681070,"De Weere, Zoutkaag",52.774455,4.875841,0,stoparea:CXX:dwrzou,,0,,
CXX:34681080,34681080,"De Weere, Zoutkaag",52.774769,4.875659,0,stoparea:CXX:dwrzou,,0,,
CXX:34681090,34681090,"Lutjewinkel, Plantsoendwarsstraat",52.770551,4.88122,0,stoparea:CXX:lutpds,,0,,
CXX:34681110,34681110,"Lutjewinkel, Weereweg",52.767517,4.886367,0,stoparea:CXX:lutwew,,0,,
CXX:34681120,34681120,"Lutjewinkel, Weereweg",52.767537,4.886767,0,stoparea:CXX:lutwew,,0,,
CXX:34681190,34681190,"Lutjewinkel, Mientweg",52.767558,4.885374,0,stoparea:CXX:ljwmwg,,0,,
CXX:34760030,34760030,"Middenmeer, Breestraat",52.808044,4.998539,0,,,1,,
CXX:34760040,34760040,"Slootdorp, Kerkstraat",52.84443,4.968947,0,,,1,,
CXX:34760050,34760050,"Middenmeer, Winkelcentrum",52.810675,4.995268,0,stoparea:CXX:mdmhsm,,1,,
CXX:34760060,34760060,"Slootdorp, Kon.Wilhelminaweg",52.839977,4.970295,0,stoparea:CXX:sldkww,,1,,
CXX:34760080,34760080,"Middenmeer, Dolfijnweg",52.832984,4.975021,0,stoparea:CXX:mdmdfw,,0,,
CXX:34760090,34760090,"Middenmeer, Praamweg",52.823508,4.981593,0,,,0,,
CXX:34760100,34760100,"Middenmeer, Praamweg",52.823462,4.981401,0,,,0,,
CXX:34760110,34760110,"Middenmeer, Dolfijnweg",52.833272,4.975033,0,stoparea:CXX:mdmdfw,,0,,
CXX:34760130,34760130,"Slootdorp, Kon.Wilhelminaweg",52.840274,4.970322,0,stoparea:CXX:sldkww,,0,,
CXX:34760140,34760140,"Middenmeer, Winkelcentrum",52.810909,4.995221,0,stoparea:CXX:mdmhsm,,1,,
CXX:34760150,34760150,"Slootdorp, Kerkstraat",52.844727,4.969062,0,,,1,,
CXX:34760160,34760160,"Middenmeer, Breestraat",52.807837,4.998571,0,,,1,,
CXX:34760190,34760190,"Slootdorp, Den Oeverseweg",52.845355,4.971402,0,stoparea:CXX:sldoev,,,,
CXX:34760200,34760200,"Middenmeer, Alkmaarseweg",52.804306,5.004311,0,stoparea:CXX:mdmalk,,1,,
CXX:34760210,34760210,"Middenmeer, Alkmaarseweg",52.804619,5.006414,0,stoparea:CXX:mdmalk,,1,,
CXX:34760220,34760220,"Middenmeer, Alkmaarseweg",52.805207,5.004882,0,stoparea:CXX:mdmalk,,1,,
CXX:34760230,34760230,"Slootdorp, Prins Bernhardweg",52.845289,4.967929,0,stoparea:CXX:sldpbw,,1,,
CXX:34760240,34760240,"Slootdorp, Prins Bernhardweg",52.845163,4.96799,0,stoparea:CXX:sldpbw,,1,,
CXX:34770010,34770010,"Den Oever, Busstation",52.929793,5.03276,0,stoparea:CXX:oevbus,,,E,
CXX:34770020,34770020,"Den Oever, Busstation",52.929791,5.032299,0,stoparea:CXX:oevbus,,0,C,
CXX:34771010,34771010,"Den Oever, Busstation",52.929674,5.032181,0,stoparea:CXX:oevbus,,0,F,
CXX:34771020,34771020,"Den Oever, Molgerdijk",52.933724,5.019164,0,stoparea:CXX:oevmgd,,0,,
CXX:34771030,34771030,"Den Oever, Vlieterstraat",52.934109,5.033722,0,stoparea:CXX:oevnzh,,0,,
CXX:34771040,34771040,"Den Oever, Vlieterstraat",52.934027,5.033425,0,stoparea:CXX:oevnzh,,0,,
CXX:34771050,34771050,"Den Oever, Hofstraat",52.934618,5.026564,0,,,0,,
CXX:34771060,34771060,"Den Oever, Hofstraat",52.934548,5.027323,0,,,0,,
CXX:34771070,34771070,"Den Oever, Oeverdijk",52.93232,5.036577,0,,,0,,
CXX:34771080,34771080,"Den Oever, Oeverdijk",52.932183,5.035849,0,,,0,,
CXX:34780010,34780010,"Kolhorn, Waardweg",52.792233,4.915438,0,stoparea:CXX:kolwdw,,0,,
CXX:34860010,34860010,"Slootdorp, Den Oeverseweg",52.845185,4.971492,0,stoparea:CXX:sldoev,,,,
CXX:34860050,34860050,"Wieringerwerf, Westerterpweg",52.842891,5.014496,0,stoparea:CXX:wrwwtw,,1,,
CXX:34860070,34860070,"Wieringerwerf, Badweg",52.845316,5.022625,0,stoparea:CXX:wrwdte,,0,,
CXX:34860080,34860080,"Wieringerwerf, Badweg",52.845298,5.02261,0,stoparea:CXX:wrwdte,,,,
CXX:34860090,34860090,"Wieringerwerf, Ir.Krijnstraat",52.850296,5.023058,0,stoparea:CXX:wrwmaa,,1,,
CXX:34860130,34860130,"Wieringerwerf, Ing.Ovingestraat",52.853575,5.028761,0,stoparea:CXX:wrwios,,1,,
CXX:34860180,34860180,"Wieringerwerf, Brinkweg",52.854924,5.023005,0,stoparea:CXX:wrwbri,,0,,
CXX:34860190,34860190,"Wieringerwerf, Brinkweg",52.854987,5.023153,0,stoparea:CXX:wrwbri,,0,,
CXX:34860200,34860200,"Wieringerwerf, Brinkweg",52.854987,5.023153,0,stoparea:CXX:wrwbri,,0,,
CXX:34860210,34860210,"Wieringerwerf, Ir.Krijnstraat",52.850313,5.022835,0,stoparea:CXX:wrwmaa,,1,,
CXX:34860230,34860230,"Wieringerwerf, Badweg",52.845334,5.022506,0,stoparea:CXX:wrwdte,,0,,
CXX:34860250,34860250,"Wieringerwerf, Westerterpweg",52.843197,5.014479,0,stoparea:CXX:wrwwtw,,0,,
CXX:34860310,34860310,"Wieringerwerf, Oosterterp",52.845239,5.026885,0,stoparea:CXX:wrwotw,,1,,
CXX:34860320,34860320,"Wieringerwerf, Oosterterp",52.844654,5.026578,0,stoparea:CXX:wrwotw,,1,,
CXX:34860330,34860330,"Wieringerwerf, Verbindingsweg",52.850829,5.030135,0,,,1,,
CXX:34860340,34860340,"Wieringerwerf, Verbindingsweg",52.850703,5.029928,0,,,1,,
CXX:34862010,34862010,"Kreileroord, Zuiderkwelweg",52.839721,5.081486,0,stoparea:CXX:krezkw,,0,,
CXX:35100010,35100010,"Schoorldam, Teuglaan",52.69435,4.723691,0,stoparea:CXX:srdtgl,,0,,
CXX:35100020,35100020,"Alkmaar, Voltastraat",52.6495,4.742721,0,stoparea:CXX:amrvol,,1,,
CXX:35100030,35100030,"Koedijk, Overzetveer",52.681929,4.739968,0,stoparea:CXX:koeozv,,0,,
CXX:35100040,35100040,"Koedijk, Vlotbrug/N9",52.660787,4.744107,0,stoparea:CXX:koevn9,,1,,
CXX:35100070,35100070,"Koedijk, Vlotbrug/N9",52.660415,4.743536,0,stoparea:CXX:koevn9,,1,,
CXX:35100080,35100080,"Koedijk, Overzetveer",52.681779,4.740399,0,stoparea:CXX:koeozv,,0,,
CXX:35100090,35100090,"Schoorldam, Damweg",52.705923,4.708987,0,stoparea:CXX:srddaw,,0,,
CXX:35100100,35100100,"Schoorldam, Teuglaan",52.692327,4.726828,0,stoparea:CXX:srdtgl,,0,,
CXX:35110010,35110010,"Alkmaar, Laan van Parijs",52.664946,4.767446,0,stoparea:CXX:amrlvp,,1,,
CXX:35110020,35110020,"Alkmaar, Schinkelwaard",52.647015,4.7587,0,stoparea:CXX:amrwmw,,1,,
CXX:35110030,35110030,"Alkmaar, Ardennenstraat",52.667038,4.760306,0,stoparea:CXX:amrads,,1,,
CXX:35110050,35110050,"Alkmaar, Eggestraat",52.664833,4.756317,0,,,1,,
CXX:35110060,35110060,"Koedijk, Burg.Kooimanstraat",52.675661,4.749227,0,,,0,,
CXX:35110070,35110070,"Alkmaar, Faktorij",52.662229,4.753221,0,stoparea:CXX:amrfak,,1,,
CXX:35110080,35110080,"Alkmaar, Laan van Troyes",52.656112,4.759029,0,stoparea:CXX:amrlvt,,1,,
CXX:35110090,35110090,"Alkmaar, Branderij",52.660141,4.751123,0,,,1,,
CXX:35110100,35110100,"Alkmaar, Laan van Bath",52.657846,4.757289,0,stoparea:CXX:amrlvb,,1,,
CXX:35110110,35110110,"Alkmaar, Laan van Bath",52.65784,4.757822,0,stoparea:CXX:amrlvb,,1,,
CXX:35110120,35110120,"Alkmaar, Branderij",52.660782,4.75169,0,,,1,,
CXX:35110130,35110130,"Alkmaar, Laan van Troyes",52.656013,4.758927,0,,,1,,
CXX:35110140,35110140,"Alkmaar, Faktorij",52.662584,4.754103,0,stoparea:CXX:amrfak,,1,,
CXX:35110160,35110160,"Alkmaar, Eggestraat",52.664915,4.756552,0,,,1,,
CXX:35110180,35110180,"Alkmaar, Ardennenstraat",52.666958,4.760426,0,stoparea:CXX:amrads,,1,,
CXX:35110190,35110190,"Alkmaar, De Landman",52.675045,4.761922,0,,,1,,
CXX:35110200,35110200,"Alkmaar, Europaboulevard",52.653908,4.758632,0,stoparea:CXX:amreur,,1,,
CXX:35110210,35110210,"Alkmaar, Rietschoot",52.676144,4.753893,0,stoparea:CXX:amrrie,,1,,
CXX:35110230,35110230,"Alkmaar, Laan van Parijs",52.664824,4.766487,0,stoparea:CXX:amrlvp,,1,,
CXX:35110280,35110280,"Alkmaar, Laan van Straatsburg",52.650772,4.757095,0,stoparea:CXX:amrlvs,,1,,
CXX:35110290,35110290,"Alkmaar, Laan van Straatsburg",52.650026,4.757017,0,stoparea:CXX:amrlvs,,1,,
CXX:35110520,35110520,"Alkmaar, Huiswaarderbrug",52.645684,4.744963,0,,,0,,
CXX:35110530,35110530,"Alkmaar, Albatrosweg",52.662471,4.766801,0,stoparea:CXX:amrvaw,,1,,
CXX:35110550,35110550,"Alkmaar, Gruttostraat",52.658409,4.763371,0,,,1,,
CXX:35110560,35110560,"Alkmaar, Glazenierstraat",52.650565,4.745202,0,,,1,,
CXX:35110570,35110570,"Alkmaar, Laan van Brussel",52.655993,4.755114,0,stoparea:CXX:amrlbw,,1,,
CXX:35110620,35110620,"Alkmaar, Laan van Brussel",52.655893,4.755056,0,stoparea:CXX:amrlbw,,1,,
CXX:35110630,35110630,"Alkmaar, Glazenierstraat",52.650429,4.744953,0,,,1,,
CXX:35110640,35110640,"Alkmaar, Gruttostraat",52.658608,4.763708,0,,,1,,
CXX:35110650,35110650,"Alkmaar, Vlielandbrug",52.648903,4.743616,0,stoparea:CXX:amrvlb,,1,,
CXX:35110660,35110660,"Alkmaar, Albatrosweg",52.662126,4.767915,0,stoparea:CXX:amrvaw,,1,,
CXX:35110680,35110680,"Alkmaar, Vlielandbrug",52.649263,4.743788,0,stoparea:CXX:amrvlb,,1,,
CXX:35110710,35110710,"Alkmaar, Looierstraat",52.655819,4.749515,0,,,1,,
CXX:35110720,35110720,"Alkmaar, Looierstraat",52.655766,4.749738,0,,,1,,
CXX:35110780,35110780,"Alkmaar, Pommerenstraat",52.668801,4.758906,0,,,1,,
CXX:35111020,35111020,"Alkmaar, Weverstraat",52.654101,4.74419,0,,,1,,
CXX:35111090,35111090,"Alkmaar, Weverstraat",52.654117,4.743953,0,,,1,,
CXX:35111300,35111300,"Alkmaar, Laan van Keulen",52.671994,4.764361,0,stoparea:CXX:amrlvk,,1,,
CXX:35111310,35111310,"Alkmaar, Laan van Keulen",52.671743,4.766331,0,stoparea:CXX:amrlvk,,1,,
CXX:35111320,35111320,"Alkmaar, Daalmeerpad",52.669582,4.762,0,stoparea:CXX:amrdap,,1,,
CXX:35111330,35111330,"Alkmaar, Daalmeerpad",52.670051,4.762348,0,stoparea:CXX:amrdap,,1,,
CXX:35111350,35111350,"Alkmaar, De Landman",52.674939,4.762101,0,,,1,,
CXX:35111370,35111370,"Alkmaar, Meijersloot",52.675644,4.757862,0,,,1,,
CXX:35111380,35111380,"Alkmaar, Waterhoen",52.659766,4.76684,0,,,1,,
CXX:35111390,35111390,"Alkmaar, Penningweg",52.672667,4.762533,0,,,0,,
CXX:35111400,35111400,"Alkmaar, Penningweg",52.672776,4.762664,0,,,0,,
CXX:35111410,35111410,"Alkmaar, Waterhoen",52.65951,4.766075,0,,,1,,
CXX:35111420,35111420,"Alkmaar, Meijersloot",52.675717,4.757965,0,,,1,,
CXX:35111440,35111440,"Alkmaar, J.Huizingastraat",52.66754,4.772126,0,stoparea:CXX:amrjhs,,1,,
CXX:35111450,35111450,"Alkmaar, J.Huizingastraat",52.667016,4.771453,0,stoparea:CXX:amrjhs,,1,,
CXX:35111500,35111500,"Alkmaar, Aidastraat",52.670211,4.772487,0,,,1,,
CXX:35111510,35111510,"Alkmaar, Aidastraat",52.670549,4.771714,0,,,1,,
CXX:35111520,35111520,"Alkmaar, H. de Riesstraat",52.671866,4.769241,0,,,1,,
CXX:35111530,35111530,"Alkmaar, H. de Riesstraat",52.671626,4.769718,0,,,1,,
CXX:35111620,35111620,"Alkmaar, Pommerenstraat",52.6689,4.758875,0,,,1,,
CXX:35111640,35111640,"Koedijk, Saskerstraat",52.669356,4.755055,0,stoparea:CXX:koesks,,1,,
CXX:35111650,35111650,"Koedijk, Zonneweid",52.670747,4.753009,0,stoparea:CXX:koezon,,1,,
CXX:35111660,35111660,"Koedijk, Zonneweid",52.671126,4.753211,0,stoparea:CXX:koezon,,1,,
CXX:35111690,35111690,"Koedijk, Saskerstraat",52.669284,4.754923,0,stoparea:CXX:koesks,,1,,
CXX:35111840,35111840,"Alkmaar, Vlietwaard",52.645341,4.766762,0,stoparea:CXX:amrvli,,1,,
CXX:35111860,35111860,"Alkmaar, Ida Gerhardtstraat",52.649116,4.768453,0,stoparea:CXX:amrigs,,1,,
CXX:35111870,35111870,"Alkmaar, Ida Gerhardtstraat",52.649096,4.768113,0,stoparea:CXX:amrigs,,1,,
CXX:35111880,35111880,"Alkmaar, Vasalisstraat",52.654019,4.769492,0,stoparea:CXX:amrvas,,1,,
CXX:35111890,35111890,"Alkmaar, Vasalisstraat",52.65418,4.769416,0,stoparea:CXX:amrvas,,1,,
CXX:35112010,35112010,"Koedijk, Burg.Kooimanstraat",52.675822,4.749018,0,,,1,,
CXX:35112100,35112100,"Alkmaar, Europaboulevard",52.653926,4.758528,0,stoparea:CXX:amreur,,1,,
CXX:35120010,35120010,"St.Pancras, Koningsspil",52.66519,4.794243,0,,,1,,
CXX:35120020,35120020,"Alkmaar, Herenweg",52.642807,4.777288,0,stoparea:CXX:amrbev,,1,,
CXX:35120050,35120050,"St.Pancras, v.d.Vijzellaan",52.663816,4.785511,0,,,1,,
CXX:35120060,35120060,"Alkmaar, Deltastraat",52.646417,4.776721,0,,,0,,
CXX:35120070,35120070,"St.Pancras, Vinkenlaan",52.65988,4.781988,0,,,1,,
CXX:35120080,35120080,"St.Pancras, Mezenstraat",52.651878,4.779497,0,,,0,,
CXX:35120090,35120090,"St.Pancras, Meeuwenlaan",52.654795,4.78058,0,,,0,,
CXX:35120100,35120100,"St.Pancras, Meeuwenlaan",52.655282,4.780987,0,,,0,,
CXX:35120111,35120111,"St.Pancras, Mezenstraat",52.651733,4.779263,0,stoparea:CXX:pacmez,,0,,
CXX:35120120,35120120,"St.Pancras, Vinkenlaan",52.659962,4.78212,0,,,1,,
CXX:35120130,35120130,"Alkmaar, Deltastraat",52.646227,4.776457,0,,,1,,
CXX:35120140,35120140,"St.Pancras, v.d.Vijzellaan",52.664141,4.785832,0,,,1,,
CXX:35120170,35120170,"St.Pancras, Kerkplein",52.665999,4.787018,0,stoparea:CXX:pacwit,,1,,
CXX:35120180,35120180,"St.Pancras, Kerkplein",52.666045,4.78718,0,stoparea:CXX:pacwit,,1,,
CXX:35120220,35120220,"Heerhugowaard, Huygendijkbos",52.640097,4.808749,0,stoparea:CXX:hhwhgb,,1,,
CXX:35120250,35120250,"Heerhugowaard, Huygendijkbos",52.640268,4.808629,0,stoparea:CXX:hhwhgb,,1,,
CXX:35120260,35120260,"Heerhugowaard, De Wending",52.644259,4.816363,0,stoparea:CXX:hhwdew,,1,,
CXX:35120270,35120270,"Heerhugowaard, De Wending",52.643514,4.814644,0,stoparea:CXX:hhwdew,,1,,
CXX:35121000,35121000,"Heerhugowaard, Huygenhoek",52.648982,4.824813,0,,,1,,
CXX:35121030,35121030,"Heerhugowaard, Butterhuizen",52.652885,4.814034,0,stoparea:CXX:hhwrps,,1,,
CXX:35121100,35121100,"Heerhugowaard, Stad van de Zon",52.648842,4.806832,0,stoparea:CXX:hhwsvz,,1,,
CXX:35121110,35121110,"Heerhugowaard, Stad van de Zon",52.648914,4.806831,0,stoparea:CXX:hhwsvz,,1,,
CXX:35121120,35121120,"Heerhugowaard, Park van Luna",52.643799,4.797486,0,stoparea:CXX:hhwpvl,,1,,
CXX:35121130,35121130,"Heerhugowaard, Park van Luna",52.643435,4.796679,0,stoparea:CXX:hhwpvl,,1,,
CXX:35121200,35121200,"Heerhugowaard, Zuidwijk",52.645754,4.818811,0,,,1,,
CXX:35121300,35121300,"Heerhugowaard, Zuidwijk",52.64649,4.82053,0,,,1,,
CXX:35210010,35210010,"Schoorldam, Oudewal West",52.715712,4.714089,0,stoparea:CXX:srdoww,,1,,
CXX:35210030,35210030,"Schoorldam, Camping de Rekere",52.709905,4.718632,0,,,0,,
CXX:35210050,35210050,"Schoorldam, Westfriesedijk",52.707966,4.718972,0,stoparea:CXX:srdwfd,,0,,
CXX:35210180,35210180,"Schoorldam, Westfriesedijk",52.708229,4.719412,0,stoparea:CXX:srdwfd,,0,,
CXX:35210200,35210200,"Schoorldam, Camping de Rekere",52.709995,4.718631,0,,,0,,
CXX:35220010,35220010,"Oudkarspel, Spoorstraat",52.70787,4.808848,0,stoparea:CXX:nswspo,,1,,
CXX:35220020,35220020,"St.Pancras, Koningsspil",52.665172,4.794258,0,,,1,,
CXX:35220030,35220030,"Noord-Scharwoude, De Mossel",52.705656,4.810091,0,stoparea:CXX:nswpro,,1,,
CXX:35220040,35220040,"Broek op Langedijk, Dijk",52.668895,4.800195,0,,,1,,
CXX:35220050,35220050,"Noord-Scharwoude, Molenkade",52.70327,4.810876,0,,,1,,
CXX:35220060,35220060,"Broek op Langedijk, Papenhorn",52.674566,4.803698,0,stoparea:CXX:bolpph,,1,,
CXX:35220070,35220070,"Noord-Scharwoude, Kloosterstraat",52.698008,4.810132,0,stoparea:CXX:zswklo,,1,,
CXX:35220080,35220080,"Broek op Langedijk, wkc Broekerveiling",52.67931,4.801668,0,stoparea:CXX:bolvom,,1,,
CXX:35220090,35220090,"Zuid-Scharwoude, Boomgaard",52.694627,4.807706,0,stoparea:CXX:zswbmg,,1,,
CXX:35220100,35220100,"Broek op Langedijk, Museumweg",52.680983,4.807457,0,stoparea:CXX:bolbve,,1,,
CXX:35220110,35220110,"Zuid-Scharwoude, Melkpad",52.689204,4.808798,0,stoparea:CXX:zswkra,,1,,
CXX:35220120,35220120,"Broek op Langedijk, Schoener",52.683718,4.808013,0,stoparea:CXX:bolscr,,1,,
CXX:35220150,35220150,"Broek op Langedijk, Schoener",52.684211,4.807903,0,stoparea:CXX:bolscr,,1,,
CXX:35220160,35220160,"Zuid-Scharwoude, Melkpad",52.689285,4.808945,0,stoparea:CXX:zswkra,,1,,
CXX:35220170,35220170,"Broek op Langedijk, Museumweg",52.680755,4.806854,0,stoparea:CXX:bolbve,,1,,
CXX:35220180,35220180,"Zuid-Scharwoude, Boomgaard",52.694932,4.807717,0,stoparea:CXX:zswbmg,,1,,
CXX:35220190,35220190,"Broek op Langedijk, wkc Broekerveiling",52.679192,4.801448,0,stoparea:CXX:bolvom,,1,,
CXX:35220200,35220200,"Noord-Scharwoude, Kloosterstraat",52.69836,4.81032,0,stoparea:CXX:zswklo,,1,,
CXX:35220210,35220210,"Broek op Langedijk, Papenhorn",52.674582,4.803461,0,stoparea:CXX:bolpph,,1,,
CXX:35220220,35220220,"Noord-Scharwoude, Molenkade",52.702983,4.811132,0,,,0,,
CXX:35220230,35220230,"Broek op Langedijk, Dijk",52.668885,4.799974,0,,,1,,
CXX:35220240,35220240,"Noord-Scharwoude, De Mossel",52.705334,4.810272,0,stoparea:CXX:nswpro,,1,,
CXX:35220260,35220260,"Zuid-Scharwoude, Vroedschap",52.687475,4.800864,0,stoparea:CXX:bolgem,,1,,
CXX:35220270,35220270,"Zuid-Scharwoude, Vroedschap",52.68784,4.801968,0,stoparea:CXX:bolgem,,1,,
CXX:35220280,35220280,"Zuid-Scharwoude, Amelsgroet",52.683978,4.793442,0,stoparea:CXX:zswamg,,1,,
CXX:35220290,35220290,"Zuid-Scharwoude, Amelsgroet",52.684132,4.793603,0,stoparea:CXX:zswamg,,1,,
CXX:35220300,35220300,"Zuid-Scharwoude, Geestweg",52.691034,4.806245,0,,,1,,
CXX:35220310,35220310,"Zuid-Scharwoude, Geestweg",52.69115,4.80614,0,,,1,,
CXX:35220320,35220320,"Broek op Langedijk, Laansloot",52.680171,4.795963,0,stoparea:CXX:bollns,,,,
CXX:35220330,35220330,"Broek op Langedijk, Laansloot",52.679767,4.796013,0,stoparea:CXX:bollns,,1,,
CXX:35260010,35260010,"Heerhugowaard, Butterhuizen",52.653602,4.815591,0,stoparea:CXX:hhwrps,,1,,
CXX:35260060,35260060,"Heerhugowaard, Broekerweg",52.669498,4.816967,0,stoparea:CXX:hhwbro,,0,,
CXX:35260110,35260110,"Heerhugowaard, Huygenhoek",52.648884,4.825095,0,,,1,,
CXX:35260140,35260140,"Heerhugowaard, Oostertocht",52.653008,4.832343,0,stoparea:CXX:hhwwfs,,1,,
CXX:35260150,35260150,"Heerhugowaard, Oostertocht",52.653055,4.8328,0,stoparea:CXX:hhwwfs,,1,,
CXX:35260230,35260230,"Heerhugowaard, 't Kruis",52.650607,4.845864,0,stoparea:CXX:hhwkrs,,1,,
CXX:35260240,35260240,"Heerhugowaard, 't Kruis",52.650403,4.846443,0,stoparea:CXX:hhwkrs,,1,,
CXX:35261030,35261030,"Heerhugowaard, Bickerstraat",52.672781,4.846316,0,,,1,,
CXX:35261040,35261040,"Heerhugowaard, Smaragd",52.659006,4.819911,0,,,1,,
CXX:35261060,35261060,"Heerhugowaard, Granaat",52.661296,4.817679,0,stoparea:CXX:hhwgra,,1,,
CXX:35261080,35261080,"Heerhugowaard, Diamant",52.663417,4.823239,0,,,1,,
CXX:35261110,35261110,"Heerhugowaard, Titanialaan",52.671386,4.828459,0,stoparea:CXX:hhwtln,,1,,
CXX:35261120,35261120,"Heerhugowaard, Titanialaan",52.671073,4.828803,0,,,1,,
CXX:35261130,35261130,"Heerhugowaard, Station",52.669623,4.824342,0,stoparea:CXX:hhwns,,,,
CXX:35261170,35261170,"Heerhugowaard, Diamant",52.663443,4.822987,0,,,1,,
CXX:35261180,35261180,"Heerhugowaard, Basiusstraat",52.671311,4.843274,0,stoparea:CXX:hhwbas,,1,,
CXX:35261190,35261190,"Heerhugowaard, Granaat",52.66164,4.818177,0,stoparea:CXX:hhwgra,,1,,
CXX:35261200,35261200,"Heerhugowaard, Bickerstraat",52.672548,4.846496,0,,,1,,
CXX:35261210,35261210,"Heerhugowaard, Smaragd",52.658434,4.82048,0,,,1,,
CXX:35261230,35261230,"Heerhugowaard, Rijn",52.655638,4.822215,0,,,1,,
CXX:35261410,35261410,"Heerhugowaard, Bomenwijk",52.667565,4.84162,0,stoparea:CXX:hhwbkl,,1,,
CXX:35261420,35261420,"Heerhugowaard, Bomenwijk",52.667637,4.841575,0,stoparea:CXX:hhwbkl,,1,,
CXX:35261430,35261430,"Heerhugowaard, Centrumwaard",52.672621,4.848816,0,stoparea:CXX:hhwwet,,1,,
CXX:35261440,35261440,"Heerhugowaard, Centrumwaard",52.672657,4.848713,0,stoparea:CXX:hhwwet,,1,,
CXX:35261450,35261450,"Heerhugowaard, Icaruslaan",52.672646,4.834519,0,stoparea:CXX:hhwjbc,,1,,
CXX:35261460,35261460,"Heerhugowaard, Icaruslaan",52.673066,4.835889,0,stoparea:CXX:hhwjbc,,1,,
CXX:35261550,35261550,"Heerhugowaard, Basiusstraat",52.671283,4.843126,0,stoparea:CXX:hhwbas,,1,,
CXX:35261601,35261601,"Heerhugowaard, Station",52.669722,4.824237,0,stoparea:CXX:hhwns,,1,,
CXX:35261630,35261630,"Heerhugowaard, Stadshart",52.661743,4.8304,0,stoparea:CXX:hhwmdw,,1,,
CXX:35261670,35261670,"Heerhugowaard, Molenwijk",52.656411,4.835522,0,,,1,,
CXX:35261680,35261680,"Heerhugowaard, Edisonstraat",52.676866,4.83182,0,stoparea:CXX:hhwnhp,,1,,
CXX:35261690,35261690,"Heerhugowaard, Edisonstraat",52.676793,4.831584,0,stoparea:CXX:hhwnhp,,1,,
CXX:35261700,35261700,"Heerhugowaard, Einsteinstraat",52.683492,4.834206,0,stoparea:CXX:hhwein,,1,,
CXX:35261720,35261720,"Heerhugowaard, Einsteinstraat",52.683411,4.834133,0,stoparea:CXX:hhwein,,1,,
CXX:35261730,35261730,"Heerhugowaard, Amprestraat",52.689145,4.834179,0,stoparea:CXX:hhwzep,,1,,
CXX:35261740,35261740,"Heerhugowaard, Amprestraat",52.689315,4.834103,0,stoparea:CXX:hhwzep,,1,,
CXX:35261770,35261770,"Heerhugowaard, Rembrandtstraat",52.671293,4.851095,0,stoparea:CXX:hhwrbs,,1,,
CXX:35261780,35261780,"Heerhugowaard, Nijverheidsstraat/Station",52.670984,4.823127,0,stoparea:CXX:hhwnns,,1,,
CXX:35261790,35261790,"Heerhugowaard, Nijverheidsstraat/Station",52.671491,4.824008,0,stoparea:CXX:hhwnns,,1,,
CXX:35262010,35262010,"Heerhugowaard, Reigersdaal",52.675437,4.865549,0,stoparea:CXX:hhwrei,,1,,
CXX:35262030,35262030,"Heerhugowaard, Krusemanlaan",52.676293,4.855972,0,,,1,,
CXX:35262040,35262040,"Heerhugowaard, Rivierenwijk",52.654584,4.829204,0,stoparea:CXX:hhwams,,1,,
CXX:35262050,35262050,"Heerhugowaard, Berckheidelaan",52.675183,4.85291,0,stoparea:CXX:hhwber,,1,,
CXX:35262080,35262080,"Heerhugowaard, Molenwijk",52.65672,4.836345,0,,,1,,
CXX:35262120,35262120,"Heerhugowaard, Stadshart",52.662098,4.831385,0,stoparea:CXX:hhwmdw,,1,,
CXX:35262210,35262210,"Heerhugowaard, Rivierenwijk",52.654744,4.827015,0,stoparea:CXX:hhwams,,1,,
CXX:35262260,35262260,"Heerhugowaard, Rembrandtstraat",52.671357,4.851316,0,stoparea:CXX:hhwrbs,,1,,
CXX:35262300,35262300,"Heerhugowaard, Berckheidelaan",52.675098,4.85402,0,stoparea:CXX:hhwber,,1,,
CXX:35262320,35262320,"Heerhugowaard, Krusemanlaan",52.67616,4.856329,0,,,1,,
CXX:35262330,35262330,"Heerhugowaard, Rijn",52.656005,4.821974,0,,,1,,
CXX:35262350,35262350,"Heerhugowaard, A.Bonnemaweg",52.65917,4.809016,0,stoparea:CXX:hhwbhz,,1,,
CXX:35262360,35262360,"Heerhugowaard, A.Bonnemaweg",52.659653,4.810414,0,stoparea:CXX:hhwbhz,,1,,
CXX:35262380,35262380,"Heerhugowaard, Saffier",52.663579,4.817679,0,stoparea:CXX:hhwrvw,,1,,
CXX:35262390,35262390,"Heerhugowaard, Saffier",52.663087,4.816148,0,stoparea:CXX:hhwrvw,,1,,
CXX:35310010,35310010,"Warmenhuizen, Oostwal",52.734217,4.746703,0,stoparea:CXX:wmhosw,,1,,
CXX:35310020,35310020,"Schoorldam, Oudewal West",52.71564,4.71412,0,stoparea:CXX:srdoww,,1,,
CXX:35310030,35310030,"Warmenhuizen, Dergmeerweg",52.728553,4.742952,0,stoparea:CXX:wmhder,,0,,
CXX:35310040,35310040,"Warmenhuizen, Kanaalweg",52.717188,4.725625,0,stoparea:CXX:wmhkaw,,1,,
CXX:35310050,35310050,"Warmenhuizen, De Baan",52.725509,4.740139,0,,,1,,
CXX:35310060,35310060,"Warmenhuizen, Schelphoek",52.722274,4.733615,0,,,1,,
CXX:35310070,35310070,"Warmenhuizen, Stationsstraat",52.722792,4.737959,0,stoparea:CXX:wmhsta,,1,,
CXX:35310100,35310100,"Warmenhuizen, Stationsstraat",52.722566,4.7378,0,,,1,,
CXX:35310110,35310110,"Warmenhuizen, Schelphoek",52.722392,4.73388,0,,,1,,
CXX:35310120,35310120,"Warmenhuizen, De Baan",52.725429,4.740333,0,,,1,,
CXX:35310130,35310130,"Warmenhuizen, Kanaalweg",52.717206,4.725684,0,stoparea:CXX:wmhkaw,,1,,
CXX:35310140,35310140,"Warmenhuizen, Dergmeerweg",52.728564,4.743499,0,stoparea:CXX:wmhder,,1,,
CXX:35310170,35310170,"Warmenhuizen, Maasweid",52.726556,4.744446,0,,,1,,
CXX:35310180,35310180,"Warmenhuizen, Maasweid",52.726638,4.744608,0,,,1,,
CXX:35310190,35310190,"Warmenhuizen, Vijfven",52.722427,4.727204,0,stoparea:CXX:wmhvyf,,1,,
CXX:35310200,35310200,"Warmenhuizen, Vijfven",52.722301,4.727132,0,stoparea:CXX:wmhvyf,,1,,
CXX:35310210,35310210,"Warmenhuizen, Oudewal Oost",52.719498,4.725797,0,,,1,,
CXX:35310220,35310220,"Warmenhuizen, Oudewal Oost",52.719589,4.726003,0,,,1,,
CXX:35320020,35320020,"Oudkarspel, Spoorstraat",52.707961,4.808995,0,stoparea:CXX:nswspo,,1,,
CXX:35320050,35320050,"Oudkarspel, Woudmeerweg",52.719241,4.794697,0,stoparea:CXX:oukwou,,1,,
CXX:35320080,35320080,"Oudkarspel, Woudmeerweg",52.719223,4.794697,0,stoparea:CXX:oukwou,,,,
CXX:35320130,35320130,"Oudkarspel, Zaagmolenweg",52.711766,4.806015,0,,,1,,
CXX:35320140,35320140,"Oudkarspel, Zaagmolenweg",52.71207,4.805744,0,,,1,,
CXX:35320150,35320150,"Oudkarspel, Haagwinde",52.711127,4.800415,0,stoparea:CXX:oukhgw,,1,,
CXX:35320160,35320160,"Oudkarspel, Kasteelstraat",52.714904,4.800942,0,stoparea:CXX:oukkas,,1,,
CXX:35320170,35320170,"Oudkarspel, Kasteelstraat",52.714836,4.801638,0,stoparea:CXX:oukkas,,0,,
CXX:35360020,35360020,"Heerhugowaard, Smuigelweg",52.716524,4.84116,0,stoparea:CXX:wrlstl,,1,,
CXX:35360030,35360030,"Heerhugowaard, Zandhorst III",52.694456,4.826553,0,,,1,,
CXX:35360060,35360060,"Heerhugowaard, Sluis",52.708388,4.821271,0,stoparea:CXX:nswslu,,1,,
CXX:35360070,35360070,"Heerhugowaard, Sluis",52.707674,4.822242,0,stoparea:CXX:nswslu,,1,,
CXX:35360101,35360101,"Heerhugowaard, Westerweg",52.694096,4.828392,0,,,0,,
CXX:35360110,35360110,"Heerhugowaard, Zeppelinstraat",52.69442,4.834231,0,,,0,,
CXX:35360120,35360120,"Heerhugowaard, Zeppelinstraat",52.694141,4.83416,0,,,0,,
CXX:35400010,35400010,"St.Maartenszee, Goudvis",52.792,4.688619,0,stoparea:CXX:mtzgou,,0,,
CXX:35400030,35400030,"Petten, E.C.N.",52.780279,4.677631,0,stoparea:CXX:petecn,,0,,
CXX:35400040,35400040,"Petten, Plein 1945",52.768102,4.662788,0,stoparea:CXX:petple,,0,,
CXX:35400050,35400050,"Petten, Eriksstraat",52.770518,4.665401,0,,,0,,
CXX:35400060,35400060,"Petten, Eriksstraat",52.770705,4.666583,0,,,0,,
CXX:35400070,35400070,"Petten, Plein 1945",52.768469,4.662427,0,stoparea:CXX:petple,,0,,
CXX:35400080,35400080,"Petten, E.C.N.",52.779441,4.677214,0,stoparea:CXX:petecn,,0,,
CXX:35400100,35400100,"Petten, Pettemerkluft",52.760871,4.66033,0,,,0,,
CXX:35400220,35400220,"Burgerbrug, Burgerweg/Zwanenplein",52.747493,4.703575,0,stoparea:CXX:bubbrw,,0,,
CXX:35400230,35400230,"Petten, Mr.Geenseweg",52.76574,4.664442,0,,,1,,
CXX:35400240,35400240,"Petten, Mr.Geenseweg",52.765595,4.664326,0,,,1,,
CXX:35400300,35400300,"Burgerbrug, Ruigeweg",52.751945,4.688531,0,,,0,,
CXX:35400310,35400310,"Burgerbrug, Ruigeweg",52.751722,4.688861,0,,,,,
CXX:35400440,35400440,"St.Maartensbrug, St.Maartensweg",52.780757,4.726311,0,stoparea:CXX:smtsmw,,0,,
CXX:35400450,35400450,"St.Maartensbrug, St.Maartensweg",52.780874,4.726398,0,stoparea:CXX:smtsmw,,0,,
CXX:35420010,35420010,"Stroet, Cafe de Wiel",52.753385,4.758376,0,,,0,,
CXX:35420030,35420030,"Dirkshorn, Groenhartweg",52.75011,4.767873,0,,,0,,
CXX:35420040,35420040,"Dirkshorn, Burgerweg",52.737935,4.777017,0,,,1,,
CXX:35420050,35420050,"Dirkshorn, Hornhoeve",52.75012,4.776803,0,stoparea:CXX:dhnhor,,0,,
CXX:35420060,35420060,"Dirkshorn, Begraafplaats",52.741795,4.777911,0,,,1,,
CXX:35420070,35420070,"Dirkshorn, De Horn",52.747134,4.778207,0,stoparea:CXX:dhncho,,1,,
CXX:35420080,35420080,"Dirkshorn, De Horn",52.747108,4.778311,0,stoparea:CXX:dhncho,,1,,
CXX:35420090,35420090,"Dirkshorn, Begraafplaats",52.742297,4.777756,0,,,1,,
CXX:35420100,35420100,"Dirkshorn, Hornhoeve",52.749969,4.777131,0,stoparea:CXX:dhnhor,,0,,
CXX:35420110,35420110,"Dirkshorn, Burgerweg",52.738698,4.776947,0,,,1,,
CXX:35420120,35420120,"Dirkshorn, Groenhartweg",52.750244,4.767737,0,,,0,,
CXX:35420130,35420130,"Kalverdijk, Ambachtsdijk",52.732327,4.776992,0,stoparea:CXX:kldhro,,1,,
CXX:35420140,35420140,"Kalverdijk, Ambachtsdijk",52.732695,4.776972,0,stoparea:CXX:kldhro,,1,,
CXX:35420150,35420150,"Kalverdijk, Bongerdlaan",52.73513,4.776938,0,stoparea:CXX:kldbol,,1,,
CXX:35420160,35420160,"Kalverdijk, Bongerdlaan",52.735284,4.777084,0,stoparea:CXX:kldbol,,1,,
CXX:35420210,35420210,"Burgerbrug, Burgerweg/Zwanenplein",52.747182,4.704143,0,stoparea:CXX:bubbrw,,0,,
CXX:35420230,35420230,"Burgerbrug, Meester Bollplein",52.748204,4.700587,0,stoparea:CXX:bubmbw,,0,,
CXX:35420240,35420240,"Burgerbrug, Meester Bollplein",52.748322,4.700674,0,stoparea:CXX:bubmbw,,0,,
CXX:35420260,35420260,"Eenigenburg, Kerkweg/Surmerhuizerweg",52.739974,4.724734,0,stoparea:CXX:enbksw,,0,,
CXX:35420270,35420270,"Eenigenburg, Kerkweg/Surmerhuizerweg",52.739824,4.725313,0,stoparea:CXX:enbksw,,0,,
CXX:35420500,35420500,"Kalverdijk, Kalverdijkerlaantje",52.732606,4.763219,0,,,1,,
CXX:35420510,35420510,"Kalverdijk, Camping de Bongerd",52.732221,4.770435,0,stoparea:CXX:kldcbo,,1,,
CXX:35420520,35420520,"Warmenhuizen, Oostwal",52.734362,4.746997,0,stoparea:CXX:wmhosw,,1,,
CXX:35420530,35420530,"Kalverdijk, Kalverdijkerlaantje",52.732693,4.762803,0,,,1,,
CXX:35420540,35420540,"Tuitjenhorn, Noorderlicht",52.733844,4.756036,0,stoparea:CXX:tjhndt,,1,,
CXX:35420550,35420550,"Tuitjenhorn, De Helt",52.734396,4.751734,0,stoparea:CXX:tuidhe,,1,,
CXX:35420560,35420560,"Tuitjenhorn, De Helt",52.73429,4.752076,0,stoparea:CXX:tuidhe,,1,,
CXX:35420570,35420570,"Tuitjenhorn, Stiegerstraat",52.740199,4.746171,0,,,0,,
CXX:35420572,35420572,"Tuitjenhorn, Stiegerstraat",52.741027,4.746278,0,,,1,,
CXX:35420580,35420580,"Kalverdijk, Camping de Bongerd",52.732167,4.770495,0,stoparea:CXX:kldcbo,,1,,
CXX:35420590,35420590,"Tuitjenhorn, Noorderlicht",52.733727,4.755919,0,stoparea:CXX:tjhndt,,1,,
CXX:35420640,35420640,"Tuitjenhorn, St.Jozefpark",52.739072,4.748764,0,,,1,,
CXX:35420642,35420642,"Tuitjenhorn, St.Jozefpark",52.739072,4.748764,0,,,1,,
CXX:35420650,35420650,"Tuitjenhorn, Kuiperstraat",52.736544,4.746728,0,stoparea:CXX:tjhkps,,0,,
CXX:35420652,35420652,"Tuitjenhorn, Kuiperstraat",52.737648,4.746327,0,,,1,,
CXX:35420670,35420670,"Tuitjenhorn, W.Dekkerstraat",52.736304,4.748893,0,stoparea:CXX:tjhwds,,1,,
CXX:35420680,35420680,"Tuitjenhorn, Sportlaan",52.740709,4.749081,0,stoparea:CXX:tjhspl,,1,,
CXX:35420682,35420682,"Tuitjenhorn, Sportlaan",52.740709,4.749081,0,stoparea:CXX:tjhspl,,1,,
CXX:35420690,35420690,"Tuitjenhorn, Dorpsstraat",52.743544,4.741413,0,,,0,,
CXX:35420730,35420730,"Tuitjenhorn, De Punter",52.733753,4.755771,0,stoparea:CXX:tuidpr,,1,,
CXX:35420740,35420740,"Tuitjenhorn, De Punter",52.73387,4.755813,0,stoparea:CXX:tuidpr,,1,,
CXX:35420750,35420750,"Tuitjenhorn, Dierenpark",52.738043,4.739673,0,,,1,,
CXX:35420760,35420760,"Tuitjenhorn, Dierenpark",52.739726,4.740137,0,,,1,,
CXX:35460010,35460010,"Heerhugowaard, Smuigelweg",52.716392,4.841664,0,stoparea:CXX:wrlstl,,1,,
CXX:35460030,35460030,"Heerhugowaard, Verlaat",52.722333,4.857635,0,stoparea:CXX:wrlver,,,,
CXX:35460080,35460080,"Heerhugowaard, Verlaat",52.72252,4.857441,0,stoparea:CXX:wrlver,,,,
CXX:35462020,35462020,"Waarland, Hogebrugweg",52.722328,4.840688,0,stoparea:CXX:wrlhbw,,,,
CXX:35462070,35462070,"Waarland, Kerkstraat",52.727516,4.831564,0,stoparea:CXX:wrlker,,0,,
CXX:35462080,35462080,"Waarland, Kromme Akker",52.727553,4.835708,0,,,,,
CXX:35462090,35462090,"Onbekend, Waarland. Beemsterboerweg",52.726095,4.838983,0,,,,,
CXX:35462100,35462100,"Waarland, Bloemstraat",52.724156,4.831725,0,,,,,
CXX:35462110,35462110,"Waarland, Hogebrugweg",52.721168,4.840465,0,stoparea:CXX:wrlhbw,,,,
CXX:35462130,35462130,"Waarland, Veluweweg",52.729949,4.834805,0,,,0,,
CXX:35462140,35462140,"Waarland, Veluweweg",52.729535,4.834647,0,,,,,
CXX:35463010,35463010,"Waarland, Sabinahof",52.726993,4.827233,0,,,,,
CXX:35463030,35463030,"Waarland, Slootgaardweg",52.738443,4.833158,0,stoparea:CXX:wrlslg,,0,,
CXX:35463040,35463040,"Waarland, Slootgaardweg",52.738326,4.833144,0,stoparea:CXX:wrlslg,,0,,
CXX:35500010,35500010,"Stolpervlotbrug, De Stolpen",52.809978,4.735243,0,stoparea:CXX:svbdst,,1,,
CXX:35500020,35500020,"St.Maartenszee, Goudvis",52.791837,4.688325,0,stoparea:CXX:mtzgou,,0,,
CXX:35500040,35500040,"St.Maartensvlotbrug, Belkmerweg",52.788297,4.700863,0,stoparea:CXX:mtvbmw,,0,,
CXX:35500050,35500050,"St.Maartensvlotbrug, Vlotbrug",52.78672,4.706328,0,stoparea:CXX:mtvvlb,,1,,
CXX:35500060,35500060,"St.Maartensvlotbrug, Vlotbrug",52.786915,4.70757,0,stoparea:CXX:mtvvlb,,0,,
CXX:35500070,35500070,"St.Maartensvlotbrug, Belkmerweg",52.788404,4.700772,0,stoparea:CXX:mtvbmw,,0,,
CXX:35500400,35500400,"St.Maartensvlotbrug, Ruigeweg 49",52.779905,4.710598,0,stoparea:CXX:smtvbr,,0,,
CXX:35500410,35500410,"St.Maartensvlotbrug, Ruigeweg 49",52.779886,4.710495,0,stoparea:CXX:smtvbr,,0,,
CXX:35520010,35520010,"St.Maarten, Valkkoog",52.778097,4.771612,0,stoparea:CXX:smtvkg,,0,,
CXX:35520020,35520020,"Stroet, Cafe de Wiel",52.753448,4.758375,0,,,0,,
